~Version Information
VERS.                2.0:  CWLS LOG ASCII STANDARD -VERSION 2.0
~WELL INFORMATION BLOCK
#MNEM.UNIT       DATA		            DESCRIPTION OF MNEMONIC
#---------    -------------            ------------------------
STRT.FT  1.200                          :START DEPTH
STOP.FT  1599.200                       :STOP DEPTH
STEP.FT  0.100                          :STEP    UP_HOLE
NULL.    -999.25                        :NULL VALUE
COMP.                             MDGS  :COMPANY
WELL.                           SMBC39  :WELL
FLD .                      Persimmon H  :FIELD
LOC .    None  None  None               :LOCATION
CNTY.                       St. Mary's  :COUNTY
STAT.                    Md.            :STATE
SRVC.           None                    :SERVICE COMPANY
DATE.   03/11/02                        :LOG DATE
UWI .                       	         :UNIQUE WELL ID
LIC .                                   :LICENSE NUMBER
~Curve Information Block
#MNEM.UNIT      API CODE     Curve Description
#---------    -------------  ------------------------
DEPT     .FT        00 001 00 00          :  1  DEPTH
GAM(NAT) .API-GR    00 310 00 00          :  2             GAM(NAT)
SP       .MV        00 010 00 00          :  3                   SP
RES(16N) .OHM-M     00 040 00 00          :  4             RES(16N)
RES(64N) .OHM-M     00 060 00 00          :  5             RES(64N)
RES      .OHM       00 000 00 00          :  6                  RES
LATERAL  .OHM-M     00 070 00 00          :  7              LATERAL
~Parameter Information Block
#MNEM.UNIT   Information     Description
#---------- ---------------  ------------------------
FILE.      ORIGINAL           :File Type
FIID.      8044A              :File Type Identifier
VERS.      1.0                :System Version
SER .      1                  :System Serial Number
TRUK.      0.0                :Truck Calibration Number
TOOL.         904             :Tool Serial Number
TIME.      1205               :Time    HrHrMinMin
LAT .          None           :Latitude
LON .          None           :Longitude
LMF .       Grnd. L           :Log Measured From
DMF .       Grnd. L           :Driller Measured From
PD  .          None           :Permanent Data
PDEV.          None           :Elevation Permanent Data
EKB .M         None           :Elevation Kelly Bushing
ELEV.DF        None           :Elevation DF
EGL .M         None           :Elevation Ground Level
DRDP.          1600           :Driller's Depth
CASD.        12               :Casing Diameter
CASB.            40           :Casing Bottom
CASX.         Steel           :Casing Type
CAST.         0               :Casing Thickness
TNOC.          None           :Time Circulation Stopped
LOGU.       None              :Logging Unit
RECB.        A. McThena       :Recorded By
OSR1.          None           :Other Services
OSR2.          None           :Other Services
OSR3.          None           :Other Services
BS  .MM          11           :Bit Size
MST .                         :Mean Surface Temperature
TGRD.        0                :Temperature Gradiant
MAGN.             0           :Magnetic Declination
MDEN.      2.71               :Density Matrix
MATR.       Dolomite          :Neutron Matrix
DTMT.            54           :Delta T Matrix
DTFL.                         :Delta T Fluid
MUDS.               0         :Mud Sample Source
MRS .           0             :Mud Resistivity
MTP .           0             :Mud Temperature
MFRS.                         :Resistivity Mud Filtrate
MFTP.                         :Temperature Mud Filtrate
MCRS.         0               :Resistivity Mud Cake
MCTP.                         :Temperature Mud Cake
FTYP.             0           :Fluid Type
FD  .K/M3                     :Fluid Density
DFV .S                        :Fluid Viscosity
FPH .                         :Fuild PH
ELCO.        2500             :Electron Cutoff
~Other Information
#MNEM.UNIT  Information      Description
#---------- ---------------  ------------------------
# --------------------------
#<------------------LOG DATA-------------------
#DEPT	GAM(NAT)	SP	RES(16N)	RES(64N)	RES	LATERAL
#FT	API-GR	MV	OHM-M	OHM-M	OHM	OHM-M
~A DEPTH  GAM(NAT) SP    RES(16N) RES(64N) RES      LATERAL  
# ...
958.400	61.5	45.8	29.8	36.8	27.4	25027.5
958.500	65.2	45.6	29.7	37.2	27.4	25027.2
958.600	72.6	45.7	29.4	37.1	27.4	25026.8
958.700	74.5	45.7	29.2	37.3	27.4	25026.5
958.800	73.5	45.5	29.2	37.4	27.2	25026.5
958.900	72.6	45.3	29.1	37.4	26.9	25026.3
959.000	74.9	45.5	29.0	37.4	26.6	25026.2
959.100	79.1	45.7	29.0	37.4	26.4	25026.2
959.200	82.3	45.8	28.8	37.2	26.1	25026.0
959.300	83.3	45.6	28.9	37.2	25.8	25026.1
959.400	84.2	45.7	28.9	37.2	25.4	25026.1
959.500	82.3	46.0	29.0	37.3	25.0	25026.2
959.600	79.6	46.1	29.0	37.4	24.9	25026.2
959.700	73.1	46.2	29.1	37.3	24.6	25026.4
959.800	74.9	46.5	29.1	37.3	24.6	25026.4
959.900	74.9	47.0	29.3	37.4	24.5	25026.6
960.000	75.4	47.4	29.3	37.1	24.5	25026.7
960.100	70.8	47.5	29.5	37.2	24.3	25026.9
960.200	67.1	47.3	29.4	37.0	24.4	25026.9
960.300	61.1	47.0	29.5	37.2	24.6	25026.9
960.400	62.4	47.0	29.5	36.8	24.7	25027.1
960.500	64.8	47.3	29.7	36.9	25.0	25027.3
960.600	62.9	47.3	29.9	36.9	25.1	25027.6
960.700	60.6	47.3	29.9	36.5	25.4	25027.7
960.800	62.0	47.3	29.9	36.7	25.7	25027.6
960.900	62.0	47.2	30.0	36.7	25.8	25027.8
961.000	59.7	47.3	30.2	36.7	26.1	25028.0
961.100	61.1	47.5	30.4	36.8	26.4	25028.3
961.200	62.4	47.5	30.4	36.7	26.7	25028.3
961.300	63.8	47.8	30.6	36.8	26.9	25028.5
961.400	67.5	48.2	30.6	36.7	27.0	25028.6
961.500	62.4	48.5	30.8	36.4	27.4	25028.9
961.600	59.2	48.8	31.0	36.4	27.6	25029.2
961.700	59.7	48.8	31.2	36.4	28.0	25029.5
961.800	59.7	48.7	31.6	36.3	28.3	25030.0
961.900	56.0	48.9	31.7	36.4	28.3	25030.1
962.000	54.1	49.0	31.8	36.4	28.2	25030.3
962.100	52.3	49.3	32.2	36.4	28.0	25030.8
962.200	49.0	49.5	32.5	36.4	28.0	25031.2
962.300	48.1	49.6	32.8	36.3	27.8	25031.6
962.400	47.6	49.5	32.8	36.5	27.8	25031.6
962.500	46.7	49.5	33.2	36.4	27.7	25032.1
962.600	47.6	49.7	33.5	36.4	27.7	25032.5
962.700	50.0	49.8	33.5	36.5	27.7	25032.5
962.800	50.4	51.2	33.6	36.6	27.8	25032.6
962.900	50.0	49.3	33.6	36.8	27.8	25032.5
963.000	51.8	48.7	33.6	37.0	27.9	25032.5
963.100	51.8	48.8	33.6	37.2	27.8	25032.4
963.200	53.7	49.5	33.6	37.4	27.9	25032.3
963.300	56.0	49.8	33.5	37.3	28.1	25032.2
963.400	56.0	49.8	33.3	37.3	28.4	25032.0
963.500	55.5	49.8	33.0	37.5	28.6	25031.5
963.600	51.8	49.7	32.8	37.8	28.8	25031.1
963.700	51.8	49.8	32.8	38.0	28.7	25031.1
963.800	48.1	50.2	32.8	38.0	28.4	25031.1
963.900	47.6	50.5	33.1	38.2	28.4	25031.4
964.000	47.6	50.5	33.3	38.7	28.4	25031.5
964.100	48.6	50.0	33.6	38.5	28.3	25032.0
964.200	48.1	49.9	33.6	39.1	28.1	25031.8
964.300	47.6	49.8	33.5	39.2	27.3	25031.6
964.400	45.8	49.8	33.6	39.6	27.0	25031.6
964.500	44.9	50.4	33.6	39.9	26.9	25031.5
964.600	43.5	50.5	33.6	40.4	27.1	25031.3
964.700	46.7	50.5	33.6	40.8	27.5	25031.2
964.800	46.3	50.3	33.6	40.7	27.9	25031.2
964.900	49.5	50.0	33.6	40.8	27.9	25031.2
965.000	47.6	50.0	33.7	41.0	27.7	25031.3
965.100	46.7	50.2	34.0	41.0	27.2	25031.7
965.200	47.2	50.0	34.4	41.3	27.0	25032.1
965.300	47.6	50.0	34.5	41.4	26.7	25032.2
965.400	49.5	50.2	35.0	41.2	26.4	25032.9
965.500	52.7	49.9	35.5	41.5	26.4	25033.5
965.600	55.5	49.8	35.6	41.4	26.5	25033.7
965.700	57.4	49.9	36.2	41.8	26.8	25034.3
965.800	56.4	49.6	36.4	42.0	27.2	25034.5
965.900	56.0	49.6	36.6	42.2	27.6	25034.7
966.000	53.2	50.3	36.9	42.4	27.6	25035.1
966.100	55.5	50.3	37.0	42.4	27.9	25035.2
966.200	57.8	50.5	37.6	42.5	28.2	25036.0
966.300	53.7	50.8	37.6	42.5	28.6	25036.0
966.400	54.1	51.1	38.3	42.6	28.9	25036.9
966.500	51.8	51.2	38.9	43.1	29.3	25037.5
966.600	51.3	51.3	39.5	43.2	29.8	25038.3
966.700	49.0	51.7	39.8	43.2	30.0	25038.7
966.800	48.1	52.3	40.5	43.4	30.5	25039.5
966.900	46.3	52.8	41.2	43.2	30.9	25040.5
967.000	45.3	53.2	41.8	43.4	30.9	25041.3
967.100	43.5	53.5	42.3	43.5	30.9	25041.9
967.200	41.6	53.8	43.3	43.4	31.0	25043.3
967.300	41.6	54.2	44.0	43.6	31.1	25044.1
967.400	41.6	54.5	44.5	43.6	31.0	25044.8
967.500	40.2	54.8	45.2	43.7	31.2	25045.7
967.600	37.5	55.0	46.0	43.6	31.2	25046.8
967.700	35.2	55.0	46.4	43.8	31.3	25047.3
967.800	34.2	55.3	46.4	43.7	31.5	25047.3
967.900	31.9	55.3	46.6	43.5	31.5	25047.6
968.000	32.4	55.5	46.9	43.5	31.8	25048.0
968.100	33.3	55.5	47.0	43.7	31.7	25048.1
968.200	34.2	55.5	47.0	44.2	31.8	25047.9
968.300	32.8	55.5	47.1	44.8	32.0	25047.9
968.400	32.4	55.6	47.1	44.8	32.1	25047.9
968.500	32.4	55.7	47.3	45.0	32.2	25048.1
968.600	35.2	55.5	47.3	45.2	32.3	25048.0
968.700	37.5	55.4	47.3	45.6	32.4	25047.9
968.800	41.6	55.3	47.2	46.3	32.4	25047.5
968.900	45.8	55.3	47.1	46.5	32.4	25047.3
969.000	45.8	55.2	47.2	47.0	32.5	25047.3
969.100	46.7	55.0	47.0	47.4	32.5	25046.9
969.200	44.9	54.8	46.9	47.5	32.5	25046.7
969.300	45.3	54.6	46.8	48.2	32.4	25046.3
969.400	48.1	54.5	46.6	49.0	32.3	25045.8
969.500	47.6	54.5	46.3	49.7	32.2	25045.2
969.600	52.7	54.4	46.4	50.1	32.2	25045.2
969.700	49.0	54.2	46.3	50.6	32.0	25044.9
969.800	50.0	54.2	46.0	51.2	31.9	25044.3
969.900	48.6	54.1	45.7	51.1	31.9	25043.9
970.000	48.6	53.9	45.6	51.5	31.9	25043.6
970.100	49.5	54.0	45.6	51.9	31.7	25043.5
970.200	48.1	53.9	45.7	52.2	31.6	25043.5
970.300	51.8	53.4	46.0	52.5	31.2	25043.8
970.400	52.3	53.3	46.2	53.0	30.9	25043.9
970.500	53.2	53.8	46.4	53.0	30.6	25044.2
970.600	54.6	54.0	46.4	53.2	30.4	25044.1
970.700	55.0	53.9	46.7	53.3	30.2	25044.5
970.800	53.7	54.0	47.2	53.6	30.2	25045.1
970.900	52.7	54.2	47.4	53.5	30.2	25045.4
971.000	52.7	54.4	47.6	53.6	30.2	25045.6
971.100	50.9	54.6	47.6	53.7	30.4	25045.6
971.200	51.3	54.7	47.6	53.4	30.9	25045.7
971.300	51.3	54.8	47.6	53.2	31.2	25045.7
971.400	53.2	55.0	47.7	53.1	31.7	25045.9
971.500	54.6	55.3	47.8	53.0	32.1	25046.1
971.600	56.9	55.5	47.9	52.9	32.4	25046.2
971.700	54.1	55.5	48.1	52.5	32.8	25046.6
971.800	52.3	55.5	48.2	52.7	33.1	25046.7
971.900	55.0	55.3	48.4	52.6	33.6	25047.0
972.000	54.1	55.8	48.7	52.4	34.1	25047.5
972.100	51.8	56.2	49.0	52.5	34.7	25047.8
972.200	51.8	56.3	49.4	52.6	34.5	25048.3
972.300	50.4	56.5	49.9	52.5	34.7	25049.0
972.400	50.4	56.6	50.4	52.5	34.8	25049.7
972.500	46.3	56.7	51.0	52.7	34.8	25050.4
972.600	44.9	57.0	51.3	53.0	34.6	25050.7
972.700	39.8	57.0	51.6	53.1	34.3	25051.1
972.800	40.7	57.0	52.3	53.3	34.0	25052.0
972.900	37.9	57.5	52.8	53.3	33.7	25052.6
973.000	38.4	57.5	53.4	53.3	33.5	25053.4
973.100	40.2	57.8	53.8	53.1	33.4	25054.0
973.200	40.2	58.1	54.0	52.8	33.4	25054.4
973.300	36.5	58.2	53.9	52.5	33.2	25054.4
973.400	35.2	58.3	54.0	52.5	33.3	25054.5
973.500	35.2	58.5	53.9	52.2	33.3	25054.5
973.600	34.7	58.8	53.9	52.0	33.4	25054.5
973.700	32.8	59.1	54.0	51.9	33.6	25054.7
973.800	31.9	59.4	53.9	51.2	33.8	25054.8
973.900	31.0	59.5	54.0	51.0	34.0	25055.0
974.000	30.1	59.7	54.0	50.9	33.6	25055.0
974.100	29.6	60.0	54.2	50.6	33.5	25055.4
974.200	26.4	59.8	54.6	50.4	33.4	25056.0
974.300	24.1	60.1	54.7	50.1	33.3	25056.2
974.400	24.5	60.2	55.1	49.9	32.9	25056.8
974.500	25.0	60.4	55.4	49.4	32.6	25057.4
974.600	25.4	60.6	55.8	48.7	32.4	25058.2
974.700	27.3	60.8	55.9	48.5	32.3	25058.4
974.800	29.6	60.8	56.0	47.8	32.2	25058.7
974.900	30.1	60.8	55.7	47.6	32.2	25058.4
975.000	29.1	61.0	55.4	46.9	32.0	25058.2
975.100	30.5	61.2	55.2	46.2	32.1	25058.2
975.200	28.7	61.3	54.9	45.6	32.1	25058.0
975.300	29.6	61.4	54.2	44.9	32.2	25057.3
975.400	32.8	61.2	53.9	44.1	32.2	25057.2
975.500	33.8	61.1	53.6	43.3	32.4	25057.0
975.600	34.7	61.2	53.1	42.4	32.5	25056.7
975.700	34.2	61.2	52.5	41.5	32.6	25056.2
975.800	32.8	61.2	51.7	40.0	32.8	25055.6
975.900	29.6	61.0	51.3	38.8	32.7	25055.5
976.000	28.2	60.8	50.6	37.6	32.8	25054.9
976.100	27.8	60.6	50.0	36.7	32.7	25054.4
976.200	25.9	60.5	49.4	35.7	32.4	25054.0
976.300	24.5	60.2	48.9	34.6	32.5	25053.7
976.400	25.0	60.0	48.4	33.8	32.3	25053.3
976.500	22.2	59.7	47.5	33.2	32.1	25052.3
976.600	20.8	59.5	46.6	31.8	32.0	25051.5
976.700	20.4	59.5	46.1	30.9	31.8	25051.2
976.800	18.0	59.4	45.0	30.0	31.8	25050.0
976.900	18.5	59.0	44.2	28.7	31.6	25049.4
977.000	19.0	58.8	43.6	27.8	31.6	25048.9
977.100	20.8	58.4	42.3	26.9	31.6	25047.4
977.200	23.1	58.0	41.3	26.6	31.6	25046.2
977.300	25.4	57.7	40.2	26.4	31.6	25044.8
977.400	27.3	57.3	39.0	25.8	31.4	25043.4
977.500	26.4	57.0	37.7	25.5	31.2	25041.8
977.600	28.7	56.7	36.6	25.0	31.2	25040.5
977.700	29.1	56.3	35.7	24.5	30.8	25039.4
977.800	28.2	56.0	34.1	24.3	30.4	25037.4
977.900	32.4	55.8	32.8	24.0	30.2	25035.7
