~Version Information
VERS.                2.0:  CWLS LOG ASCII STANDARD -VERSION 2.0
~WELL INFORMATION BLOCK
#MNEM.UNIT       DATA		            DESCRIPTION OF MNEMONIC
#---------    -------------            ------------------------
STRT.FT  1.200                          :START DEPTH
STOP.FT  1599.200                       :STOP DEPTH
STEP.FT  0.100                          :STEP    UP_HOLE
NULL.    -999.25                        :NULL VALUE
COMP.                             MDGS  :COMPANY
WELL.                           SMBC39  :WELL
FLD .                      Persimmon H  :FIELD
LOC .    None  None  None               :LOCATION
CNTY.                       St. Mary's  :COUNTY
STAT.                    Md.            :STATE
SRVC.           None                    :SERVICE COMPANY
DATE.   03/11/02                        :LOG DATE
UWI .                       	         :UNIQUE WELL ID
LIC .                                   :LICENSE NUMBER
~Curve Information Block
#MNEM.UNIT      API CODE     Curve Description
#---------    -------------  ------------------------
DEPT     .FT        00 001 00 00          :  1  DEPTH
GAM(NAT) .API-GR    00 310 00 00          :  2             GAM(NAT)
SP       .MV        00 010 00 00          :  3                   SP
RES(16N) .OHM-M     00 040 00 00          :  4             RES(16N)
RES(64N) .OHM-M     00 060 00 00          :  5             RES(64N)
RES      .OHM       00 000 00 00          :  6                  RES
LATERAL  .OHM-M     00 070 00 00          :  7              LATERAL
~Parameter Information Block
#MNEM.UNIT   Information     Description
#---------- ---------------  ------------------------
FILE.      ORIGINAL           :File Type
FIID.      8044A              :File Type Identifier
VERS.      1.0                :System Version
SER .      1                  :System Serial Number
TRUK.      0.0                :Truck Calibration Number
TOOL.         904             :Tool Serial Number
TIME.      1205               :Time    HrHrMinMin
LAT .          None           :Latitude
LON .          None           :Longitude
LMF .       Grnd. L           :Log Measured From
DMF .       Grnd. L           :Driller Measured From
PD  .          None           :Permanent Data
PDEV.          None           :Elevation Permanent Data
EKB .M         None           :Elevation Kelly Bushing
ELEV.DF        None           :Elevation DF
EGL .M         None           :Elevation Ground Level
DRDP.          1600           :Driller's Depth
CASD.        12               :Casing Diameter
CASB.            40           :Casing Bottom
CASX.         Steel           :Casing Type
CAST.         0               :Casing Thickness
TNOC.          None           :Time Circulation Stopped
LOGU.       None              :Logging Unit
RECB.        A. McThena       :Recorded By
OSR1.          None           :Other Services
OSR2.          None           :Other Services
OSR3.          None           :Other Services
BS  .MM          11           :Bit Size
MST .                         :Mean Surface Temperature
TGRD.        0                :Temperature Gradiant
MAGN.             0           :Magnetic Declination
MDEN.      2.71               :Density Matrix
MATR.       Dolomite          :Neutron Matrix
DTMT.            54           :Delta T Matrix
DTFL.                         :Delta T Fluid
MUDS.               0         :Mud Sample Source
MRS .           0             :Mud Resistivity
MTP .           0             :Mud Temperature
MFRS.                         :Resistivity Mud Filtrate
MFTP.                         :Temperature Mud Filtrate
MCRS.         0               :Resistivity Mud Cake
MCTP.                         :Temperature Mud Cake
FTYP.             0           :Fluid Type
FD  .K/M3                     :Fluid Density
DFV .S                        :Fluid Viscosity
FPH .                         :Fuild PH
ELCO.        2500             :Electron Cutoff
~Other Information
#MNEM.UNIT  Information      Description
#---------- ---------------  ------------------------
# --------------------------
#<------------------LOG DATA-------------------
#DEPT	GAM(NAT)	SP	RES(16N)	RES(64N)	RES	LATERAL
#FT	API-GR	MV	OHM-M	OHM-M	OHM	OHM-M
~A DEPTH  GAM(NAT) SP    RES(16N) RES(64N) RES      LATERAL  
# ...
626.100	78.6	73.0	20.2	33.9	21.8	25015.6
626.200	79.6	73.0	20.1	34.1	21.6	25015.4
626.300	78.2	72.9	20.1	34.2	21.8	25015.4
626.400	77.2	72.9	20.2	34.3	21.8	25015.5
626.500	77.2	72.8	20.0	34.4	21.7	25015.2
626.600	76.8	72.8	20.0	34.3	21.8	25015.2
626.700	79.6	72.7	20.0	34.4	21.7	25015.2
626.800	80.9	72.7	20.0	34.3	21.8	25015.2
626.900	79.6	72.4	19.9	34.6	21.8	25015.0
627.000	80.5	72.3	19.7	34.5	21.9	25014.8
627.100	81.9	72.2	20.0	34.5	21.9	25015.2
627.200	80.0	72.2	19.8	34.4	21.9	25014.9
627.300	79.6	72.2	19.9	34.2	21.8	25015.1
627.400	81.4	72.1	20.1	34.2	21.9	25015.4
627.500	81.9	71.8	20.1	34.1	22.0	25015.4
627.600	77.7	71.8	20.1	34.0	21.9	25015.5
627.700	75.9	71.6	20.2	34.0	21.9	25015.6
627.800	77.2	71.4	20.1	33.9	22.0	25015.5
627.900	82.3	71.4	20.2	33.8	21.9	25015.7
628.000	83.7	71.4	20.2	33.7	21.9	25015.7
628.100	90.2	71.4	20.2	33.3	22.1	25015.8
628.200	92.5	71.3	20.2	33.3	21.9	25015.8
628.300	91.1	71.2	20.4	33.1	22.0	25016.2
628.400	92.0	71.1	20.3	33.0	22.0	25016.1
628.500	93.4	71.0	20.4	33.0	22.1	25016.2
628.600	94.8	70.9	20.6	32.7	22.2	25016.6
628.700	97.1	70.8	20.9	32.6	22.2	25017.0
628.800	98.5	70.6	20.9	32.6	22.4	25017.0
628.900	96.2	70.3	21.0	32.4	22.5	25017.2
629.000	94.8	70.2	21.2	32.4	22.6	25017.5
629.100	96.7	70.1	21.4	32.2	22.5	25017.8
629.200	91.6	70.0	21.6	32.1	22.6	25018.1
629.300	94.4	69.9	21.7	32.0	22.8	25018.3
629.400	97.1	69.8	21.6	31.9	22.8	25018.2
629.500	97.6	69.7	21.8	31.9	22.9	25018.4
629.600	105.0	69.3	21.9	31.6	23.0	25018.7
629.700	109.2	69.1	22.2	31.6	23.0	25019.1
629.800	120.3	69.1	22.4	31.5	23.2	25019.4
629.900	125.8	68.7	22.6	31.5	23.3	25019.6
630.000	131.4	68.4	22.7	31.5	23.5	25019.8
630.100	136.5	68.2	22.9	31.5	23.6	25020.0
630.200	141.1	68.1	23.1	31.6	23.8	25020.3
630.300	147.1	67.9	23.2	31.4	23.9	25020.5
630.400	145.2	67.8	23.4	31.4	24.0	25020.7
630.500	146.2	67.7	23.3	31.5	24.2	25020.6
630.600	144.8	67.4	23.5	31.3	24.2	25020.9
630.700	138.3	67.2	23.8	31.4	24.3	25021.3
630.800	132.8	67.1	24.0	31.4	24.3	25021.5
630.900	117.5	67.1	24.3	31.3	24.4	25022.0
631.000	111.5	67.0	24.6	31.3	24.3	25022.4
631.100	108.2	66.9	24.6	31.2	24.6	25022.4
631.200	103.1	66.9	24.9	31.3	24.4	25022.8
631.300	93.0	67.2	24.8	31.4	24.5	25022.6
631.400	85.6	66.9	24.9	31.3	24.6	25022.8
631.500	82.8	66.9	25.1	31.4	24.6	25023.0
631.600	82.8	66.9	25.0	31.5	24.8	25022.8
631.700	77.2	66.7	25.3	31.5	24.8	25023.2
631.800	76.8	66.6	25.4	31.8	25.0	25023.3
631.900	75.4	66.5	25.4	31.7	25.2	25023.3
632.000	81.4	66.4	25.7	31.5	25.3	25023.8
632.100	82.3	66.3	25.7	31.8	25.5	25023.7
632.200	82.3	67.0	25.8	31.8	25.5	25023.8
632.300	82.3	65.9	26.0	31.8	25.6	25024.1
632.400	84.2	66.0	26.1	31.9	25.6	25024.2
632.500	83.3	65.6	26.4	31.9	25.6	25024.6
632.600	84.2	66.3	26.5	31.9	25.6	25024.7
632.700	84.6	65.3	26.4	31.9	25.6	25024.6
632.800	91.6	65.1	26.5	32.1	25.5	25024.6
632.900	90.2	65.0	26.6	32.2	25.4	25024.7
633.000	90.7	64.8	26.6	32.0	25.5	25024.8
633.100	87.0	65.0	26.7	32.3	25.5	25024.8
633.200	84.2	64.8	27.0	32.3	25.5	25025.2
633.300	82.3	64.8	27.0	32.3	25.6	25025.2
633.400	79.1	64.8	27.2	32.5	25.6	25025.4
633.500	80.0	64.7	27.4	32.5	25.6	25025.7
633.600	80.9	64.7	27.6	32.6	25.7	25025.9
633.700	79.1	64.6	27.7	32.9	25.7	25026.0
633.800	73.1	64.5	28.0	32.9	25.7	25026.4
633.900	70.3	64.4	28.1	33.0	25.8	25026.5
634.000	75.4	64.3	28.3	33.3	25.8	25026.6
634.100	81.4	64.4	28.4	33.3	25.8	25026.8
634.200	82.3	64.6	28.8	33.5	25.8	25027.2
634.300	84.2	64.5	28.8	33.6	25.9	25027.2
634.400	84.6	64.5	29.0	33.8	26.1	25027.4
634.500	88.8	64.5	29.0	33.7	26.2	25027.4
634.600	93.9	64.7	29.1	34.0	26.3	25027.5
634.700	100.4	64.8	29.1	34.2	26.7	25027.4
634.800	101.3	65.0	29.1	34.5	27.2	25027.3
634.900	107.8	65.3	29.2	34.7	27.4	25027.4
635.000	111.9	65.9	29.0	34.6	27.6	25027.1
635.100	111.0	66.4	29.0	34.9	27.8	25027.0
635.200	108.2	66.9	28.6	35.0	28.2	25026.5
635.300	107.3	67.3	28.5	35.2	28.4	25026.3
635.400	110.5	67.5	28.3	35.3	28.5	25026.0
635.500	112.9	67.7	28.5	35.2	28.7	25026.3
635.600	112.9	67.7	28.8	35.3	28.7	25026.6
635.700	105.9	67.8	28.9	35.7	28.6	25026.6
635.800	105.0	67.8	29.1	35.7	28.4	25026.9
635.900	105.0	67.8	29.2	35.9	28.2	25027.0
636.000	108.2	67.6	29.4	35.9	27.9	25027.2
636.100	108.2	67.6	29.4	36.0	27.3	25027.2
636.200	106.4	67.3	29.4	36.0	26.9	25027.2
636.300	102.2	67.2	29.6	36.1	26.8	25027.4
636.400	103.6	67.1	29.8	36.5	26.5	25027.6
636.500	99.9	66.9	29.6	36.5	26.4	25027.3
636.600	99.9	66.8	29.7	36.7	26.3	25027.4
636.700	99.9	66.8	29.7	36.6	26.2	25027.4
636.800	100.8	66.6	29.7	36.5	26.2	25027.4
636.900	95.3	66.2	29.6	36.4	26.1	25027.3
637.000	93.4	65.7	29.6	36.2	26.3	25027.4
637.100	87.0	65.5	29.7	36.3	26.2	25027.5
637.200	80.9	65.8	29.9	36.4	26.3	25027.7
637.300	77.2	65.9	29.9	36.4	26.5	25027.7
637.400	83.7	65.9	30.0	36.5	26.5	25027.8
637.500	84.6	65.9	30.0	36.8	26.5	25027.7
637.600	84.6	65.6	30.0	37.0	26.3	25027.7
637.700	78.2	65.3	30.1	37.3	26.2	25027.7
637.800	72.6	65.0	30.2	37.4	26.2	25027.8
637.900	70.8	64.6	30.5	37.7	26.3	25028.1
638.000	68.5	64.3	30.6	37.8	26.9	25028.2
638.100	67.1	64.3	30.6	37.9	27.5	25028.2
638.200	66.1	64.3	30.9	38.1	28.0	25028.5
638.300	62.0	64.0	31.3	38.1	28.4	25029.0
638.400	62.0	63.3	31.6	38.5	28.5	25029.3
638.500	52.7	62.6	31.9	38.7	29.0	25029.6
638.600	53.2	61.8	32.3	38.8	29.3	25030.1
638.700	51.3	61.3	32.8	39.1	29.3	25030.7
638.800	51.8	60.9	33.0	38.9	29.4	25031.0
638.900	53.2	60.3	33.6	39.3	29.4	25031.7
639.000	51.8	59.7	33.7	39.5	29.5	25031.8
639.100	50.4	59.4	34.2	39.6	29.7	25032.4
639.200	53.2	59.4	34.5	39.8	29.9	25032.7
639.300	53.7	59.3	34.8	39.9	30.2	25033.1
639.400	56.4	59.3	35.3	40.2	30.4	25033.7
639.500	57.4	59.0	35.5	40.5	30.4	25033.8
639.600	62.0	58.8	35.9	40.4	30.3	25034.4
639.700	55.5	58.7	36.5	40.7	30.0	25035.1
639.800	56.9	58.3	37.0	40.8	29.7	25035.7
639.900	59.7	58.0	37.5	41.0	29.5	25036.3
640.000	56.9	57.8	37.6	41.3	29.4	25036.4
640.100	61.1	57.7	37.9	41.2	29.2	25036.8
640.200	63.4	57.5	38.4	41.4	29.2	25037.4
640.300	60.1	57.3	38.8	41.6	28.9	25037.9
640.400	60.6	57.3	39.3	42.0	28.9	25038.4
640.500	61.1	57.2	39.5	42.3	29.0	25038.6
640.600	60.6	57.0	39.8	42.4	29.1	25038.9
640.700	61.5	57.0	39.7	43.1	29.2	25038.6
640.800	62.9	57.0	39.7	43.6	29.1	25038.4
640.900	62.4	57.0	39.8	44.4	29.2	25038.3
641.000	61.5	57.1	40.1	45.1	29.2	25038.4
641.100	64.8	56.9	40.4	45.8	29.2	25038.6
641.200	62.4	56.9	40.5	46.7	29.3	25038.4
641.300	59.2	57.0	40.7	47.2	29.2	25038.5
641.400	62.9	57.0	40.9	47.7	29.4	25038.6
641.500	64.8	57.1	41.2	48.6	29.3	25038.7
641.600	68.9	57.2	41.5	49.3	29.4	25038.9
641.700	67.1	57.1	41.7	50.0	29.5	25038.9
641.800	67.5	57.1	41.8	50.6	29.6	25038.9
641.900	69.8	57.2	41.9	51.2	29.7	25038.8
642.000	71.7	57.1	41.8	51.7	29.7	25038.5
642.100	70.3	57.1	42.0	52.4	29.7	25038.5
642.200	69.8	57.2	42.2	53.0	29.8	25038.6
642.300	70.3	57.2	42.5	53.5	29.8	25038.8
642.400	74.0	57.3	42.8	54.0	29.8	25039.1
642.500	73.1	57.3	43.1	54.6	30.0	25039.3
642.600	71.7	57.3	43.2	54.9	29.9	25039.3
642.700	67.5	57.3	43.7	55.5	30.0	25039.8
642.800	66.6	57.4	44.0	56.0	29.9	25040.0
642.900	63.4	57.4	44.3	56.4	30.0	25040.3
643.000	63.4	57.5	44.8	56.8	29.9	25040.8
643.100	61.5	57.5	45.3	56.7	29.8	25041.5
643.200	65.2	57.6	46.0	57.2	29.9	25042.3
643.300	68.5	57.7	46.4	58.0	29.8	25042.5
643.400	69.4	57.7	46.6	58.3	30.0	25042.7
643.500	68.0	57.8	47.3	58.5	30.2	25043.6
643.600	67.5	57.9	47.8	58.6	30.3	25044.2
643.700	67.1	58.1	48.5	58.6	30.4	25045.1
643.800	68.0	58.2	49.0	58.8	30.6	25045.7
643.900	68.5	58.3	49.4	59.5	30.9	25046.0
644.000	66.6	58.3	50.0	60.4	31.0	25046.5
644.100	64.8	58.5	50.6	60.8	31.4	25047.2
644.200	64.3	58.7	51.2	61.1	31.9	25047.9
644.300	61.1	58.8	51.4	61.8	32.5	25047.9
644.400	53.7	59.0	51.7	61.9	33.2	25048.3
644.500	52.3	59.0	52.2	62.4	33.8	25048.8
644.600	50.4	59.1	52.7	63.0	34.4	25049.3
644.700	48.6	59.4	53.6	63.2	35.2	25050.4
644.800	47.2	59.6	54.1	64.0	36.3	25050.8
644.900	46.3	59.5	55.2	64.4	37.1	25052.1
645.000	45.8	59.3	55.8	64.9	37.6	25052.8
645.100	46.3	59.1	56.6	65.3	37.5	25053.7
645.200	45.8	59.1	57.4	65.9	37.4	25054.6
645.300	43.5	59.0	58.9	66.5	37.3	25056.4
645.400	39.8	59.0	60.3	67.0	37.3	25058.1
645.500	43.0	59.0	62.3	67.4	37.3	25060.6
