~Version Information
VERS.                2.0:  CWLS LOG ASCII STANDARD -VERSION 2.0
~WELL INFORMATION BLOCK
#MNEM.UNIT       DATA		            DESCRIPTION OF MNEMONIC
#---------    -------------            ------------------------
STRT.FT  1.200                          :START DEPTH
STOP.FT  1599.200                       :STOP DEPTH
STEP.FT  0.100                          :STEP    UP_HOLE
NULL.    -999.25                        :NULL VALUE
COMP.                             MDGS  :COMPANY
WELL.                           SMBC39  :WELL
FLD .                      Persimmon H  :FIELD
LOC .    None  None  None               :LOCATION
CNTY.                       St. Mary's  :COUNTY
STAT.                    Md.            :STATE
SRVC.           None                    :SERVICE COMPANY
DATE.   03/11/02                        :LOG DATE
UWI .                       	         :UNIQUE WELL ID
LIC .                                   :LICENSE NUMBER
~Curve Information Block
#MNEM.UNIT      API CODE     Curve Description
#---------    -------------  ------------------------
DEPT     .FT        00 001 00 00          :  1  DEPTH
GAM(NAT) .API-GR    00 310 00 00          :  2             GAM(NAT)
SP       .MV        00 010 00 00          :  3                   SP
RES(16N) .OHM-M     00 040 00 00          :  4             RES(16N)
RES(64N) .OHM-M     00 060 00 00          :  5             RES(64N)
RES      .OHM       00 000 00 00          :  6                  RES
LATERAL  .OHM-M     00 070 00 00          :  7              LATERAL
~Parameter Information Block
#MNEM.UNIT   Information     Description
#---------- ---------------  ------------------------
FILE.      ORIGINAL           :File Type
FIID.      8044A              :File Type Identifier
VERS.      1.0                :System Version
SER .      1                  :System Serial Number
TRUK.      0.0                :Truck Calibration Number
TOOL.         904             :Tool Serial Number
TIME.      1205               :Time    HrHrMinMin
LAT .          None           :Latitude
LON .          None           :Longitude
LMF .       Grnd. L           :Log Measured From
DMF .       Grnd. L           :Driller Measured From
PD  .          None           :Permanent Data
PDEV.          None           :Elevation Permanent Data
EKB .M         None           :Elevation Kelly Bushing
ELEV.DF        None           :Elevation DF
EGL .M         None           :Elevation Ground Level
DRDP.          1600           :Driller's Depth
CASD.        12               :Casing Diameter
CASB.            40           :Casing Bottom
CASX.         Steel           :Casing Type
CAST.         0               :Casing Thickness
TNOC.          None           :Time Circulation Stopped
LOGU.       None              :Logging Unit
RECB.        A. McThena       :Recorded By
OSR1.          None           :Other Services
OSR2.          None           :Other Services
OSR3.          None           :Other Services
BS  .MM          11           :Bit Size
MST .                         :Mean Surface Temperature
TGRD.        0                :Temperature Gradiant
MAGN.             0           :Magnetic Declination
MDEN.      2.71               :Density Matrix
MATR.       Dolomite          :Neutron Matrix
DTMT.            54           :Delta T Matrix
DTFL.                         :Delta T Fluid
MUDS.               0         :Mud Sample Source
MRS .           0             :Mud Resistivity
MTP .           0             :Mud Temperature
MFRS.                         :Resistivity Mud Filtrate
MFTP.                         :Temperature Mud Filtrate
MCRS.         0               :Resistivity Mud Cake
MCTP.                         :Temperature Mud Cake
FTYP.             0           :Fluid Type
FD  .K/M3                     :Fluid Density
DFV .S                        :Fluid Viscosity
FPH .                         :Fuild PH
ELCO.        2500             :Electron Cutoff
~Other Information
#MNEM.UNIT  Information      Description
#---------- ---------------  ------------------------
# --------------------------
#<------------------LOG DATA-------------------
#DEPT	GAM(NAT)	SP	RES(16N)	RES(64N)	RES	LATERAL
#FT	API-GR	MV	OHM-M	OHM-M	OHM	OHM-M
~A DEPTH  GAM(NAT) SP    RES(16N) RES(64N) RES      LATERAL  
# ...
215.000	47.2	87.3	21.7	32.4	22.5	25018.1
215.100	47.2	87.4	21.7	32.2	22.6	25018.2
215.200	44.9	87.4	21.7	32.4	22.6	25018.1
215.300	43.9	87.6	21.7	32.3	22.5	25018.2
215.400	42.6	87.7	21.7	32.5	22.6	25018.1
215.500	42.1	87.8	21.7	32.4	22.6	25018.1
215.600	44.4	88.0	21.7	32.4	22.7	25018.1
215.700	42.6	88.2	21.6	32.4	22.6	25018.0
215.800	42.1	88.3	21.6	32.3	22.7	25018.0
215.900	43.9	88.2	21.6	32.4	22.6	25018.0
216.000	44.9	88.2	21.4	32.3	22.6	25017.8
216.100	43.0	88.2	21.4	31.9	22.7	25017.9
216.200	43.9	88.3	21.4	32.1	22.6	25017.8
216.300	44.9	88.4	21.3	32.1	22.5	25017.7
216.400	45.8	88.4	21.3	32.1	22.6	25017.7
216.500	49.0	88.5	21.2	32.1	22.4	25017.6
216.600	49.0	88.6	21.2	32.0	22.5	25017.6
216.700	46.7	88.7	21.1	32.1	22.4	25017.4
216.800	45.3	88.8	21.0	31.8	22.4	25017.4
216.900	43.5	88.9	21.0	31.8	22.4	25017.4
217.000	40.7	89.0	21.0	31.9	22.2	25017.4
217.100	39.8	89.1	20.9	31.6	22.3	25017.3
217.200	38.9	89.0	21.0	31.7	22.2	25017.4
217.300	40.7	89.2	20.9	32.2	22.2	25017.1
217.400	43.0	89.3	20.9	32.3	22.1	25017.1
217.500	39.3	89.3	20.8	32.5	22.0	25016.9
217.600	42.1	89.4	20.9	32.2	22.0	25017.1
217.700	40.7	89.3	20.8	32.3	22.1	25017.0
217.800	40.2	89.2	20.8	32.4	22.1	25016.9
217.900	43.5	89.3	20.6	32.4	22.2	25016.7
218.000	44.9	89.3	20.7	32.4	22.0	25016.8
218.100	43.9	89.5	20.6	32.2	22.1	25016.7
218.200	49.0	89.4	20.6	32.4	22.2	25016.7
218.300	49.5	89.5	20.5	32.4	22.1	25016.5
218.400	48.1	89.6	20.5	32.5	22.1	25016.5
218.500	48.6	89.7	20.5	32.5	22.0	25016.5
218.600	50.4	89.8	20.4	32.4	22.1	25016.4
218.700	46.7	90.0	20.4	32.5	22.0	25016.4
218.800	48.1	90.2	20.4	32.5	21.9	25016.4
218.900	47.2	90.2	20.4	32.5	21.9	25016.4
219.000	45.8	90.3	20.4	32.6	21.9	25016.3
219.100	47.2	90.4	20.3	32.5	21.9	25016.2
219.200	48.1	90.4	20.3	32.6	22.0	25016.2
219.300	43.9	90.5	20.5	32.7	21.9	25016.4
219.400	46.3	90.4	20.6	32.6	21.9	25016.6
219.500	46.3	90.4	20.6	32.6	21.9	25016.6
219.600	45.3	90.6	20.6	32.5	22.0	25016.6
219.700	47.6	90.5	20.7	32.4	21.9	25016.8
219.800	48.1	90.7	20.8	32.4	22.0	25016.9
219.900	45.3	90.7	20.9	32.4	22.0	25017.1
220.000	50.4	90.7	21.0	32.6	22.1	25017.1
220.100	51.3	90.6	21.0	32.4	22.1	25017.2
220.200	50.4	90.3	21.1	32.3	22.1	25017.4
220.300	49.0	90.3	21.2	32.4	22.1	25017.5
220.400	50.9	90.3	21.3	32.2	22.3	25017.7
220.500	50.4	90.3	21.6	32.3	22.3	25018.0
220.600	52.7	90.1	21.8	32.3	22.4	25018.3
220.700	50.0	90.0	21.6	32.2	22.5	25018.1
220.800	47.2	89.9	21.8	32.3	22.4	25018.3
220.900	49.0	89.9	21.7	32.4	22.6	25018.1
221.000	55.5	89.8	22.1	32.3	22.6	25018.7
221.100	53.2	89.6	22.3	32.3	22.6	25019.0
221.200	51.8	89.6	22.5	32.2	22.7	25019.3
221.300	52.3	89.3	22.7	32.1	22.8	25019.6
221.400	57.4	89.2	23.0	32.2	22.9	25019.9
221.500	59.7	89.1	23.2	32.1	23.0	25020.2
221.600	60.1	88.9	23.2	32.1	23.0	25020.2
221.700	56.9	88.8	23.3	32.2	23.2	25020.3
221.800	57.8	88.7	23.4	32.1	23.3	25020.5
221.900	59.2	88.6	23.6	32.0	23.4	25020.8
222.000	60.6	88.4	24.0	32.1	23.4	25021.3
222.100	56.9	88.2	24.1	32.1	23.5	25021.4
222.200	56.0	87.8	24.5	32.0	23.6	25022.0
222.300	54.6	87.4	24.7	32.0	23.6	25022.3
222.400	53.2	87.2	24.8	31.9	23.6	25022.4
222.500	50.4	86.7	24.9	31.9	23.6	25022.6
222.600	45.3	86.3	24.9	32.0	23.6	25022.5
222.700	44.4	86.3	24.9	31.9	23.7	25022.6
222.800	42.6	86.3	25.1	32.1	23.9	25022.8
222.900	42.6	86.3	25.2	31.9	23.9	25023.0
223.000	42.1	86.3	25.5	32.0	24.0	25023.3
223.100	37.9	86.1	25.5	32.1	24.0	25023.3
223.200	36.5	86.2	25.5	32.0	24.1	25023.3
223.300	35.2	86.2	25.7	32.2	24.1	25023.5
223.400	37.0	86.2	25.7	32.1	24.1	25023.6
223.500	37.0	86.2	25.7	32.2	24.3	25023.5
223.600	36.5	86.1	25.8	32.2	24.2	25023.7
223.700	36.1	86.1	25.8	32.0	24.3	25023.7
223.800	35.6	86.1	25.8	32.3	24.2	25023.6
223.900	35.2	86.0	25.8	32.3	24.3	25023.6
224.000	34.7	85.9	25.9	32.4	24.2	25023.7
224.100	33.3	86.1	26.0	32.4	24.2	25023.9
224.200	36.5	86.1	25.8	32.4	24.1	25023.6
224.300	39.8	86.2	25.9	32.6	24.1	25023.7
224.400	42.6	86.2	25.8	32.8	24.1	25023.5
224.500	40.7	86.3	25.8	32.6	24.0	25023.5
224.600	39.3	86.4	25.7	32.8	24.0	25023.3
224.700	40.7	86.4	25.7	32.7	24.0	25023.4
224.800	43.5	86.4	25.6	33.0	24.0	25023.1
224.900	41.2	86.3	25.5	33.0	23.9	25023.0
225.000	44.9	86.3	25.4	32.9	23.9	25022.9
225.100	43.9	86.5	25.2	33.3	23.8	25022.5
225.200	45.3	86.6	25.0	33.3	23.8	25022.2
225.300	42.1	86.6	25.0	33.3	23.8	25022.2
225.400	41.6	86.8	25.0	33.4	23.7	25022.2
225.500	39.8	86.8	24.8	33.5	23.6	25021.9
225.600	42.6	86.9	24.9	33.6	23.5	25022.0
225.700	48.1	87.2	24.8	33.6	23.4	25021.9
225.800	46.7	87.3	24.8	33.9	23.3	25021.8
225.900	48.6	87.6	24.7	34.0	23.2	25021.6
226.000	50.0	87.8	24.7	34.2	23.4	25021.5
226.100	51.3	87.8	24.6	34.4	23.2	25021.3
226.200	54.1	87.9	24.4	34.5	23.2	25021.0
226.300	54.1	88.1	24.4	34.5	23.2	25021.0
226.400	56.4	88.3	24.2	34.7	23.3	25020.7
226.500	55.5	88.3	24.2	34.6	23.2	25020.7
226.600	57.8	88.3	24.1	34.7	23.3	25020.6
226.700	58.3	88.3	24.0	34.7	23.2	25020.4
226.800	57.4	88.4	24.1	34.8	23.2	25020.5
226.900	59.2	88.7	24.0	34.7	23.2	25020.4
227.000	54.6	88.8	24.0	35.0	23.1	25020.3
227.100	55.5	88.9	24.1	35.1	23.0	25020.4
227.200	52.3	88.8	24.0	35.0	23.1	25020.3
227.300	51.8	88.8	24.1	35.2	23.1	25020.4
227.400	52.7	88.9	24.0	35.1	23.0	25020.3
227.500	53.2	89.1	24.1	35.1	23.0	25020.4
227.600	52.3	89.2	24.1	35.1	23.0	25020.4
227.700	52.7	89.3	24.0	35.1	23.0	25020.3
227.800	51.8	89.3	24.1	35.4	23.1	25020.3
227.900	50.9	89.2	24.2	35.2	23.2	25020.5
228.000	52.3	89.1	24.3	34.9	23.3	25020.8
228.100	55.5	89.1	24.4	35.2	23.2	25020.8
228.200	53.7	89.1	24.4	35.9	23.3	25020.6
228.300	56.4	88.9	24.6	36.2	23.3	25020.7
228.400	57.4	89.0	24.6	36.4	23.4	25020.7
228.500	58.7	88.9	24.8	36.1	23.4	25021.0
228.600	58.3	89.0	24.8	36.3	23.4	25021.0
228.700	56.9	89.1	24.8	36.0	23.4	25021.1
228.800	55.5	89.0	24.9	36.2	23.5	25021.1
228.900	57.4	88.8	24.9	36.2	23.5	25021.1
229.000	57.8	88.8	25.0	36.1	23.6	25021.3
229.100	55.0	88.6	25.4	36.3	23.7	25021.8
229.200	55.5	88.5	25.4	36.3	23.7	25021.8
229.300	57.8	88.4	25.6	36.4	23.8	25022.0
229.400	56.9	88.3	25.6	36.3	24.0	25022.0
229.500	55.5	88.2	25.7	36.2	23.9	25022.2
229.600	54.1	88.0	25.9	36.4	24.0	25022.4
229.700	52.7	87.9	26.0	36.4	24.1	25022.5
229.800	56.4	87.9	26.4	36.4	24.1	25023.1
229.900	56.4	87.8	26.4	36.5	24.2	25023.0
230.000	53.2	88.3	26.5	36.4	24.2	25023.2
230.100	52.7	88.3	26.5	36.5	24.3	25023.2
230.200	54.1	88.3	27.0	36.6	24.3	25023.8
230.300	54.6	88.3	27.2	36.5	24.4	25024.1
230.400	58.3	88.5	27.4	36.8	24.4	25024.3
230.500	56.4	88.6	27.5	36.9	24.5	25024.4
230.600	56.4	88.8	27.7	37.3	24.6	25024.5
230.700	57.8	88.7	28.0	37.1	24.6	25025.0
230.800	62.4	88.8	28.1	37.4	24.6	25025.0
230.900	60.6	88.8	28.2	37.7	24.8	25025.0
231.000	61.5	88.8	28.2	37.8	25.0	25025.0
231.100	63.8	88.9	28.3	37.8	25.1	25025.1
231.200	63.8	88.8	28.4	38.0	25.4	25025.2
231.300	65.2	88.5	28.6	38.0	25.6	25025.5
231.400	63.4	88.4	28.7	38.2	25.8	25025.5
231.500	62.9	88.6	28.8	38.3	26.1	25025.6
231.600	65.7	88.8	29.1	38.4	26.2	25026.0
231.700	67.5	88.9	29.2	38.5	26.4	25026.1
231.800	69.4	89.3	29.3	38.5	26.6	25026.2
231.900	67.5	89.4	29.7	38.7	26.5	25026.7
232.000	69.8	89.7	30.0	38.7	26.3	25027.1
232.100	66.1	89.9	29.9	39.0	26.2	25026.9
232.200	66.6	90.2	30.2	39.0	26.2	25027.3
232.300	69.4	90.6	30.6	39.2	26.0	25027.7
232.400	69.4	90.9	31.1	39.2	26.0	25028.4
232.500	71.7	91.0	31.5	39.2	25.8	25028.9
232.600	68.5	91.3	31.9	39.3	25.6	25029.4
232.700	70.3	91.9	32.3	39.4	25.6	25029.9
232.800	71.7	92.3	32.9	39.5	25.6	25030.7
232.900	70.3	92.8	33.4	39.4	25.6	25031.4
233.000	68.9	93.3	33.6	39.5	25.8	25031.6
233.100	71.2	93.8	33.7	39.7	26.1	25031.7
233.200	73.5	94.2	34.1	39.5	26.6	25032.3
233.300	74.5	94.4	34.5	39.5	27.1	25032.8
233.400	70.8	94.6	35.0	39.6	27.3	25033.5
233.500	71.2	95.0	35.6	39.7	28.2	25034.2
233.600	67.1	95.5	35.8	39.8	29.0	25034.5
233.700	67.5	96.1	36.6	40.0	29.6	25035.5
233.800	62.9	96.7	37.3	39.7	30.1	25036.5
233.900	58.3	97.0	38.0	39.9	30.8	25037.4
234.000	57.4	97.3	39.1	40.1	31.2	25038.8
234.100	57.4	97.5	39.8	40.4	31.8	25039.6
234.200	51.3	97.6	41.0	40.5	32.3	25041.2
234.300	53.2	97.6	42.3	40.6	32.4	25042.9
234.400	51.8	97.5	43.6	40.7	32.6	25044.6
234.500	54.6	97.4	44.8	40.8	32.8	25046.1
