~Version Information
VERS.                2.0:  CWLS LOG ASCII STANDARD -VERSION 2.0
~WELL INFORMATION BLOCK
#MNEM.UNIT       DATA		            DESCRIPTION OF MNEMONIC
#---------    -------------            ------------------------
STRT.FT  1.200                          :START DEPTH
STOP.FT  1599.200                       :STOP DEPTH
STEP.FT  0.100                          :STEP    UP_HOLE
NULL.    -999.25                        :NULL VALUE
COMP.                             MDGS  :COMPANY
WELL.                           SMBC39  :WELL
FLD .                      Persimmon H  :FIELD
LOC .    None  None  None               :LOCATION
CNTY.                       St. Mary's  :COUNTY
STAT.                    Md.            :STATE
SRVC.           None                    :SERVICE COMPANY
DATE.   03/11/02                        :LOG DATE
UWI .                       	         :UNIQUE WELL ID
LIC .                                   :LICENSE NUMBER
~Curve Information Block
#MNEM.UNIT      API CODE     Curve Description
#---------    -------------  ------------------------
DEPT     .FT        00 001 00 00          :  1  DEPTH
GAM(NAT) .API-GR    00 310 00 00          :  2             GAM(NAT)
SP       .MV        00 010 00 00          :  3                   SP
RES(16N) .OHM-M     00 040 00 00          :  4             RES(16N)
RES(64N) .OHM-M     00 060 00 00          :  5             RES(64N)
RES      .OHM       00 000 00 00          :  6                  RES
LATERAL  .OHM-M     00 070 00 00          :  7              LATERAL
~Parameter Information Block
#MNEM.UNIT   Information     Description
#---------- ---------------  ------------------------
FILE.      ORIGINAL           :File Type
FIID.      8044A              :File Type Identifier
VERS.      1.0                :System Version
SER .      1                  :System Serial Number
TRUK.      0.0                :Truck Calibration Number
TOOL.         904             :Tool Serial Number
TIME.      1205               :Time    HrHrMinMin
LAT .          None           :Latitude
LON .          None           :Longitude
LMF .       Grnd. L           :Log Measured From
DMF .       Grnd. L           :Driller Measured From
PD  .          None           :Permanent Data
PDEV.          None           :Elevation Permanent Data
EKB .M         None           :Elevation Kelly Bushing
ELEV.DF        None           :Elevation DF
EGL .M         None           :Elevation Ground Level
DRDP.          1600           :Driller's Depth
CASD.        12               :Casing Diameter
CASB.            40           :Casing Bottom
CASX.         Steel           :Casing Type
CAST.         0               :Casing Thickness
TNOC.          None           :Time Circulation Stopped
LOGU.       None              :Logging Unit
RECB.        A. McThena       :Recorded By
OSR1.          None           :Other Services
OSR2.          None           :Other Services
OSR3.          None           :Other Services
BS  .MM          11           :Bit Size
MST .                         :Mean Surface Temperature
TGRD.        0                :Temperature Gradiant
MAGN.             0           :Magnetic Declination
MDEN.      2.71               :Density Matrix
MATR.       Dolomite          :Neutron Matrix
DTMT.            54           :Delta T Matrix
DTFL.                         :Delta T Fluid
MUDS.               0         :Mud Sample Source
MRS .           0             :Mud Resistivity
MTP .           0             :Mud Temperature
MFRS.                         :Resistivity Mud Filtrate
MFTP.                         :Temperature Mud Filtrate
MCRS.         0               :Resistivity Mud Cake
MCTP.                         :Temperature Mud Cake
FTYP.             0           :Fluid Type
FD  .K/M3                     :Fluid Density
DFV .S                        :Fluid Viscosity
FPH .                         :Fuild PH
ELCO.        2500             :Electron Cutoff
~Other Information
#MNEM.UNIT  Information      Description
#---------- ---------------  ------------------------
# --------------------------
#<------------------LOG DATA-------------------
#DEPT	GAM(NAT)	SP	RES(16N)	RES(64N)	RES	LATERAL
#FT	API-GR	MV	OHM-M	OHM-M	OHM	OHM-M
~A DEPTH  GAM(NAT) SP    RES(16N) RES(64N) RES      LATERAL  
# ...
430.600	47.2	78.6	24.4	22.6	25.3	25025.0
430.700	50.4	78.4	24.5	22.5	25.4	25025.2
430.800	50.4	78.4	24.7	22.6	25.5	25025.4
430.900	49.5	78.3	24.7	22.6	25.6	25025.4
431.000	57.4	78.3	24.8	22.7	25.4	25025.5
431.100	63.8	78.3	24.9	22.8	25.4	25025.6
431.200	61.1	78.2	24.8	22.7	25.5	25025.5
431.300	59.2	77.9	24.9	23.1	25.5	25025.5
431.400	59.7	77.7	24.8	22.9	25.7	25025.4
431.500	58.3	77.6	24.9	22.9	25.8	25025.6
431.600	58.7	77.5	24.8	23.0	25.9	25025.4
431.700	56.4	77.3	24.9	22.8	25.9	25025.6
431.800	58.3	77.2	24.9	22.7	25.9	25025.6
431.900	55.5	77.0	24.8	22.6	25.9	25025.5
432.000	56.4	76.8	24.9	22.9	25.9	25025.6
432.100	49.5	76.8	24.9	22.7	25.8	25025.6
432.200	43.9	76.8	24.9	22.6	25.9	25025.7
432.300	43.5	76.6	24.9	22.8	25.9	25025.6
432.400	43.5	76.4	24.9	22.6	26.0	25025.7
432.500	43.0	76.3	24.8	22.5	26.0	25025.6
432.600	45.3	76.3	24.9	22.4	26.0	25025.7
432.700	44.4	76.3	24.9	22.4	26.0	25025.7
432.800	45.8	76.3	24.8	22.5	26.0	25025.6
432.900	42.6	76.2	24.8	22.3	26.1	25025.6
433.000	43.5	76.2	24.8	22.3	26.0	25025.6
433.100	44.4	76.1	24.8	22.2	25.8	25025.7
433.200	50.9	75.9	24.6	22.3	25.9	25025.4
433.300	52.7	75.8	24.5	22.3	25.7	25025.2
433.400	54.6	75.8	24.3	22.1	25.6	25025.0
433.500	52.7	75.7	24.1	22.0	25.5	25024.8
433.600	52.7	75.6	23.9	21.8	25.4	25024.6
433.700	54.1	75.4	23.7	22.0	25.4	25024.3
433.800	53.2	75.3	23.3	22.1	25.2	25023.7
433.900	52.7	75.3	23.3	22.2	25.2	25023.7
434.000	54.1	75.4	23.2	22.1	25.1	25023.6
434.100	57.4	75.4	22.9	22.0	25.1	25023.2
434.200	56.4	75.6	22.6	22.2	25.0	25022.7
434.300	57.4	75.8	22.4	22.1	24.8	25022.5
434.400	59.2	75.8	22.1	21.9	24.7	25022.2
434.500	58.7	75.9	21.8	22.1	24.4	25021.7
434.600	62.0	76.1	21.7	22.0	24.2	25021.6
434.700	61.5	76.2	21.6	21.9	24.0	25021.5
434.800	62.9	76.4	21.3	21.9	23.7	25021.1
434.900	64.3	76.7	21.0	21.8	23.5	25020.7
435.000	66.6	76.8	20.7	21.7	23.6	25020.4
435.100	66.1	76.9	20.5	21.6	23.5	25020.1
435.200	62.0	77.1	20.3	21.6	23.4	25019.9
435.300	65.2	77.1	20.2	21.5	23.4	25019.8
435.400	63.8	77.2	20.0	21.3	23.4	25019.6
435.500	64.3	77.2	19.7	21.2	23.2	25019.2
435.600	69.4	77.3	19.4	21.2	23.0	25018.8
435.700	70.3	77.3	19.3	21.3	23.0	25018.6
435.800	74.9	77.3	19.0	21.3	22.8	25018.2
435.900	72.6	77.2	18.8	21.4	22.7	25017.9
436.000	74.9	77.3	18.8	21.3	22.7	25018.0
436.100	74.0	77.4	18.7	21.1	22.5	25017.9
436.200	73.5	77.4	18.6	21.2	22.5	25017.7
436.300	76.8	77.4	18.4	21.2	22.5	25017.5
436.400	74.9	77.4	18.1	21.1	22.4	25017.1
436.500	74.0	77.4	18.0	21.2	22.4	25016.9
436.600	71.7	77.6	17.8	21.1	22.3	25016.7
436.700	68.5	77.6	17.6	21.1	22.3	25016.4
436.800	69.4	77.7	17.4	20.7	22.2	25016.3
436.900	70.3	77.7	17.4	20.8	22.2	25016.3
437.000	72.2	77.7	17.3	20.6	22.1	25016.2
437.100	73.1	77.8	17.1	20.5	21.9	25016.0
437.200	76.8	78.0	17.0	20.5	21.9	25015.8
437.300	81.9	78.1	16.8	20.4	21.7	25015.6
437.400	83.7	78.2	16.6	20.4	21.6	25015.3
437.500	88.8	78.3	16.4	20.2	21.6	25015.1
437.600	97.1	78.3	16.3	20.2	21.6	25015.0
437.700	100.8	78.3	16.2	20.2	21.6	25014.9
437.800	105.0	78.6	16.0	20.0	21.5	25014.7
437.900	105.0	78.8	16.0	20.1	21.5	25014.6
438.000	103.6	78.9	16.0	19.7	21.5	25014.8
438.100	110.1	79.0	15.8	19.7	21.5	25014.5
438.200	113.3	79.1	15.6	19.6	21.4	25014.3
438.300	115.6	79.3	15.3	19.5	21.3	25013.9
438.400	117.5	79.4	15.4	19.5	21.4	25014.0
438.500	115.2	79.7	15.3	19.3	21.3	25014.0
438.600	111.9	79.7	15.1	19.3	21.2	25013.7
438.700	108.2	79.8	15.1	19.1	21.1	25013.8
438.800	108.2	79.9	14.8	19.0	21.1	25013.4
438.900	104.1	80.0	14.7	19.0	20.9	25013.3
439.000	103.1	80.1	14.7	18.9	20.9	25013.3
439.100	101.8	80.2	14.6	18.9	20.8	25013.2
439.200	95.7	80.2	14.7	18.6	20.8	25013.4
439.300	91.6	80.2	14.7	18.4	20.9	25013.5
439.400	86.5	80.1	14.6	18.4	20.9	25013.3
439.500	80.9	79.9	14.6	18.3	21.0	25013.4
439.600	88.8	79.9	14.6	18.3	21.0	25013.4
439.700	84.2	79.8	14.6	18.1	21.0	25013.4
439.800	87.0	79.7	14.4	18.1	21.0	25013.2
439.900	83.3	79.6	14.3	17.7	21.1	25013.2
440.000	86.0	79.5	14.2	17.6	21.0	25013.1
440.100	86.5	79.5	14.1	17.6	21.0	25012.9
440.200	88.3	79.4	14.1	17.7	20.8	25012.9
440.300	89.3	79.6	13.9	17.8	20.8	25012.6
440.400	90.2	79.6	13.8	17.6	20.7	25012.5
440.500	92.0	79.5	13.7	17.6	20.6	25012.4
440.600	93.4	79.6	13.6	17.6	20.5	25012.3
440.700	88.8	79.7	13.5	17.4	20.5	25012.2
440.800	90.7	79.8	13.4	17.5	20.3	25012.0
440.900	86.0	79.7	13.4	17.5	20.3	25012.0
441.000	86.5	79.7	13.4	17.5	20.2	25012.0
441.100	82.8	79.8	13.4	17.4	20.3	25012.1
441.200	81.4	79.8	13.4	17.4	20.4	25012.1
441.300	82.3	79.8	13.3	17.4	20.4	25011.9
441.400	80.9	79.8	13.4	17.3	20.4	25012.1
441.500	79.1	79.8	13.4	17.3	20.4	25012.1
441.600	77.2	79.7	13.3	17.2	20.4	25012.0
441.700	74.5	79.6	13.4	17.2	20.5	25012.1
441.800	74.5	79.6	13.3	17.1	20.4	25012.0
441.900	75.4	79.6	13.4	17.1	20.5	25012.2
442.000	76.8	79.6	13.4	17.1	20.5	25012.2
442.100	77.2	79.4	13.3	16.9	20.5	25012.1
442.200	77.2	79.3	13.4	16.8	20.5	25012.3
442.300	79.6	79.3	13.4	16.7	20.5	25012.3
442.400	79.1	79.3	13.3	16.4	20.4	25012.3
442.500	81.4	79.3	13.4	16.6	20.5	25012.3
442.600	82.3	79.3	13.4	16.5	20.5	25012.4
442.700	84.2	79.2	13.4	16.3	20.5	25012.4
442.800	83.7	79.1	13.3	16.5	20.5	25012.2
442.900	83.7	79.2	13.4	16.4	20.5	25012.4
443.000	82.8	79.1	13.4	16.5	20.4	25012.4
443.100	78.2	78.9	13.3	16.1	20.5	25012.4
443.200	80.0	78.9	13.4	16.2	20.5	25012.5
443.300	85.6	78.8	13.4	16.2	20.4	25012.5
443.400	84.2	78.7	13.3	16.3	20.6	25012.3
443.500	85.6	78.6	13.4	16.4	20.4	25012.4
443.600	83.7	80.0	13.3	16.0	20.4	25012.4
443.700	86.0	78.3	13.4	16.2	20.5	25012.5
443.800	85.1	78.1	13.4	16.0	20.4	25012.5
443.900	87.9	77.9	13.3	16.2	20.5	25012.3
444.000	86.0	77.8	13.4	16.4	20.6	25012.4
444.100	86.0	77.8	13.3	16.2	20.5	25012.3
444.200	87.4	77.8	13.4	16.2	20.5	25012.5
444.300	87.4	77.7	13.4	16.4	20.6	25012.4
444.400	83.3	77.6	13.4	16.4	20.7	25012.4
444.500	84.6	77.4	13.3	16.5	20.6	25012.2
444.600	85.6	77.3	13.4	16.2	20.7	25012.5
444.700	84.6	77.3	13.5	16.5	20.8	25012.5
444.800	88.3	77.2	13.6	16.2	20.8	25012.7
444.900	88.8	77.2	13.7	16.2	20.8	25012.9
445.000	90.2	77.1	13.8	16.1	20.9	25013.0
445.100	92.0	77.1	13.9	16.3	21.0	25013.1
445.200	94.4	77.1	14.0	16.5	20.9	25013.2
445.300	96.7	77.0	14.1	16.4	20.9	25013.3
445.400	94.8	76.9	14.1	16.7	21.0	25013.2
445.500	97.1	76.8	14.3	16.6	20.8	25013.5
445.600	91.6	76.8	14.3	16.6	21.0	25013.5
445.700	92.5	76.7	14.4	16.9	21.0	25013.6
445.800	90.7	76.7	14.6	16.8	21.0	25013.9
445.900	84.6	76.6	14.5	17.1	21.2	25013.6
446.000	89.7	76.4	14.6	17.0	21.2	25013.8
446.100	90.2	76.3	14.6	17.0	21.3	25013.8
446.200	89.3	76.2	14.7	17.1	21.3	25013.9
446.300	87.0	76.1	14.6	16.7	21.3	25013.9
446.400	84.2	75.9	14.6	17.2	21.5	25013.7
446.500	84.6	75.8	14.8	17.0	21.6	25014.1
446.600	84.2	75.7	14.8	17.2	21.6	25014.0
446.700	90.7	75.4	15.0	17.3	21.8	25014.2
446.800	87.0	75.3	15.1	17.1	21.8	25014.4
446.900	92.5	75.7	15.3	17.4	21.9	25014.6
447.000	91.6	75.1	15.3	17.2	22.0	25014.7
447.100	86.0	75.0	15.5	17.4	22.1	25014.9
447.200	85.6	74.8	15.7	17.4	22.2	25015.1
447.300	86.5	74.5	15.8	17.6	22.3	25015.2
447.400	85.1	74.2	16.0	17.6	22.5	25015.5
447.500	87.0	74.0	16.0	17.4	22.5	25015.5
447.600	87.9	73.8	16.0	17.6	22.6	25015.5
447.700	87.0	73.6	16.0	17.4	22.7	25015.5
447.800	87.0	73.3	16.2	17.5	22.9	25015.8
447.900	87.4	73.0	16.4	17.7	23.0	25016.0
448.000	83.7	72.9	16.5	17.7	23.0	25016.1
448.100	86.5	72.8	16.8	17.8	23.1	25016.5
448.200	90.7	72.6	16.8	17.8	23.2	25016.5
448.300	90.7	72.3	17.0	17.9	23.2	25016.7
448.400	86.5	72.2	17.3	17.9	23.3	25017.1
448.500	87.0	71.9	17.4	18.0	23.4	25017.2
448.600	87.9	71.7	17.3	18.0	23.3	25017.1
448.700	92.5	71.5	17.4	17.9	23.4	25017.2
448.800	95.3	71.4	17.7	18.1	23.5	25017.6
448.900	97.6	71.3	17.7	18.0	23.5	25017.6
449.000	100.8	71.1	18.0	18.0	23.6	25018.0
449.100	102.2	70.8	18.1	18.2	23.6	25018.1
449.200	104.1	70.6	18.2	18.2	23.7	25018.2
449.300	100.4	70.3	18.5	18.2	23.8	25018.6
449.400	100.4	70.2	18.7	18.2	23.8	25018.9
449.500	104.5	70.0	18.6	18.3	23.9	25018.7
449.600	103.6	69.7	18.8	18.4	23.8	25018.9
449.700	106.8	69.5	18.8	18.4	23.9	25018.9
449.800	99.4	69.3	18.8	18.6	24.0	25018.9
449.900	97.1	69.1	19.1	18.6	24.0	25019.3
450.000	93.9	68.8	19.3	18.6	24.0	25019.5
