~Version Information
VERS.                2.0:  CWLS LOG ASCII STANDARD -VERSION 2.0
~WELL INFORMATION BLOCK
#MNEM.UNIT       DATA		            DESCRIPTION OF MNEMONIC
#---------    -------------            ------------------------
STRT.FT  1.200                          :START DEPTH
STOP.FT  1599.200                       :STOP DEPTH
STEP.FT  0.100                          :STEP    UP_HOLE
NULL.    -999.25                        :NULL VALUE
COMP.                             MDGS  :COMPANY
WELL.                           SMBC39  :WELL
FLD .                      Persimmon H  :FIELD
LOC .    None  None  None               :LOCATION
CNTY.                       St. Mary's  :COUNTY
STAT.                    Md.            :STATE
SRVC.           None                    :SERVICE COMPANY
DATE.   03/11/02                        :LOG DATE
UWI .                       	         :UNIQUE WELL ID
LIC .                                   :LICENSE NUMBER
~Curve Information Block
#MNEM.UNIT      API CODE     Curve Description
#---------    -------------  ------------------------
DEPT     .FT        00 001 00 00          :  1  DEPTH
GAM(NAT) .API-GR    00 310 00 00          :  2             GAM(NAT)
SP       .MV        00 010 00 00          :  3                   SP
RES(16N) .OHM-M     00 040 00 00          :  4             RES(16N)
RES(64N) .OHM-M     00 060 00 00          :  5             RES(64N)
RES      .OHM       00 000 00 00          :  6                  RES
LATERAL  .OHM-M     00 070 00 00          :  7              LATERAL
~Parameter Information Block
#MNEM.UNIT   Information     Description
#---------- ---------------  ------------------------
FILE.      ORIGINAL           :File Type
FIID.      8044A              :File Type Identifier
VERS.      1.0                :System Version
SER .      1                  :System Serial Number
TRUK.      0.0                :Truck Calibration Number
TOOL.         904             :Tool Serial Number
TIME.      1205               :Time    HrHrMinMin
LAT .          None           :Latitude
LON .          None           :Longitude
LMF .       Grnd. L           :Log Measured From
DMF .       Grnd. L           :Driller Measured From
PD  .          None           :Permanent Data
PDEV.          None           :Elevation Permanent Data
EKB .M         None           :Elevation Kelly Bushing
ELEV.DF        None           :Elevation DF
EGL .M         None           :Elevation Ground Level
DRDP.          1600           :Driller's Depth
CASD.        12               :Casing Diameter
CASB.            40           :Casing Bottom
CASX.         Steel           :Casing Type
CAST.         0               :Casing Thickness
TNOC.          None           :Time Circulation Stopped
LOGU.       None              :Logging Unit
RECB.        A. McThena       :Recorded By
OSR1.          None           :Other Services
OSR2.          None           :Other Services
OSR3.          None           :Other Services
BS  .MM          11           :Bit Size
MST .                         :Mean Surface Temperature
TGRD.        0                :Temperature Gradiant
MAGN.             0           :Magnetic Declination
MDEN.      2.71               :Density Matrix
MATR.       Dolomite          :Neutron Matrix
DTMT.            54           :Delta T Matrix
DTFL.                         :Delta T Fluid
MUDS.               0         :Mud Sample Source
MRS .           0             :Mud Resistivity
MTP .           0             :Mud Temperature
MFRS.                         :Resistivity Mud Filtrate
MFTP.                         :Temperature Mud Filtrate
MCRS.         0               :Resistivity Mud Cake
MCTP.                         :Temperature Mud Cake
FTYP.             0           :Fluid Type
FD  .K/M3                     :Fluid Density
DFV .S                        :Fluid Viscosity
FPH .                         :Fuild PH
ELCO.        2500             :Electron Cutoff
~Other Information
#MNEM.UNIT  Information      Description
#---------- ---------------  ------------------------
# --------------------------
#<------------------LOG DATA-------------------
#DEPT	GAM(NAT)	SP	RES(16N)	RES(64N)	RES	LATERAL
#FT	API-GR	MV	OHM-M	OHM-M	OHM	OHM-M
~A DEPTH  GAM(NAT) SP    RES(16N) RES(64N) RES      LATERAL  
# ...
1364.700	62.4	-30.4	8.2	9.0	16.7	25007.9
1364.800	61.1	-30.6	8.2	9.2	16.7	25007.9
1364.900	60.6	-31.0	8.2	9.0	16.5	25007.9
1365.000	63.4	-31.0	8.2	9.0	16.5	25007.9
1365.100	62.9	-31.4	8.3	9.1	16.6	25008.0
1365.200	62.0	-31.5	8.2	8.9	16.4	25008.0
1365.300	61.5	-31.6	8.2	9.0	16.6	25007.9
1365.400	62.0	-31.9	8.3	9.2	16.7	25008.0
1365.500	62.9	-32.0	8.2	9.1	16.6	25007.9
1365.600	62.4	-32.2	8.1	9.1	16.6	25007.8
1365.700	61.1	-32.3	8.1	9.3	16.5	25007.7
1365.800	60.6	-32.5	8.1	9.1	16.5	25007.8
1365.900	58.7	-32.7	8.2	9.1	16.6	25007.9
1366.000	62.9	-33.0	8.2	9.4	16.5	25007.8
1366.100	61.5	-33.0	8.1	9.3	16.6	25007.7
1366.200	60.6	-33.0	8.2	9.4	16.7	25007.8
1366.300	61.5	-33.2	8.2	9.3	16.7	25007.8
1366.400	62.4	-33.7	8.2	9.2	16.6	25007.9
1366.500	62.4	-33.9	8.2	9.2	16.6	25007.9
1366.600	61.1	-34.0	8.2	9.2	16.4	25007.9
1366.700	61.1	-34.3	8.2	9.2	16.5	25007.9
1366.800	57.4	-34.2	8.2	9.1	16.4	25007.9
1366.900	55.5	-34.3	8.3	9.2	16.4	25008.0
1367.000	56.4	-34.7	8.2	9.2	16.4	25007.9
1367.100	52.3	-34.8	8.2	9.0	16.5	25007.9
1367.200	52.7	-35.0	8.3	9.1	16.4	25008.0
1367.300	52.3	-35.0	8.1	9.1	16.6	25007.8
1367.400	52.7	-35.3	8.2	9.1	16.5	25007.9
1367.500	53.7	-35.5	8.2	9.3	16.6	25007.8
1367.600	52.3	-35.8	8.2	9.2	16.7	25007.9
1367.700	51.3	-35.9	8.3	9.0	16.7	25008.1
1367.800	49.5	-35.8	8.2	9.1	16.8	25007.9
1367.900	50.0	-36.2	8.3	9.5	16.8	25007.9
1368.000	51.3	-36.2	8.2	9.7	16.7	25007.7
1368.100	51.8	-36.7	8.3	9.8	16.8	25007.8
1368.200	52.7	-37.0	8.2	9.3	16.8	25007.8
1368.300	50.9	-37.0	8.2	9.0	16.6	25007.9
1368.400	55.0	-37.3	8.3	9.4	16.6	25007.9
1368.500	52.7	-37.7	8.2	9.6	16.5	25007.7
1368.600	50.4	-37.9	8.2	9.4	16.5	25007.8
1368.700	50.4	-37.9	8.3	9.6	16.4	25007.9
1368.800	50.9	-37.9	8.3	9.7	16.4	25007.8
1368.900	51.3	-38.0	8.2	9.5	16.2	25007.8
1369.000	54.6	-38.2	8.2	9.5	16.1	25007.8
1369.100	56.4	-38.5	8.1	9.4	16.0	25007.7
1369.200	61.1	-38.6	8.0	9.4	15.9	25007.5
1369.300	60.1	-38.7	8.1	9.4	16.1	25007.7
1369.400	64.3	-39.0	8.0	9.4	16.3	25007.5
1369.500	61.1	-39.0	8.1	9.4	16.5	25007.7
1369.600	64.3	-39.3	8.0	9.4	16.6	25007.5
1369.700	65.2	-39.4	8.0	9.5	16.7	25007.5
1369.800	65.2	-39.5	8.0	9.5	16.5	25007.5
1369.900	65.7	-39.7	8.1	9.6	16.5	25007.6
1370.000	66.1	-39.8	8.2	9.6	16.2	25007.7
1370.100	68.9	-39.9	8.2	9.2	16.1	25007.9
1370.200	65.7	-39.9	8.1	9.4	16.0	25007.7
1370.300	63.8	-40.0	8.0	9.4	16.0	25007.5
1370.400	67.1	-40.3	8.2	9.4	16.0	25007.8
1370.500	63.4	-40.5	8.3	9.5	16.0	25007.9
1370.600	65.7	-40.5	8.2	9.4	16.0	25007.8
1370.700	64.3	-40.3	8.3	9.3	16.0	25008.0
1370.800	62.9	-40.4	8.2	9.4	16.0	25007.8
1370.900	63.8	-40.7	8.3	9.4	15.9	25007.9
1371.000	65.2	-40.8	8.3	9.4	16.0	25007.9
1371.100	65.2	-40.8	8.2	9.4	16.1	25007.8
1371.200	62.4	-41.0	8.3	9.4	16.0	25007.9
1371.300	63.8	-41.0	8.3	9.4	16.0	25007.9
1371.400	62.9	-41.1	8.2	9.3	15.9	25007.8
1371.500	60.6	-41.3	8.3	9.4	15.9	25007.9
1371.600	58.3	-41.5	8.3	9.3	16.2	25008.0
1371.700	56.4	-42.0	8.3	9.5	16.7	25007.9
1371.800	58.3	-42.3	8.3	9.5	17.4	25007.9
1371.900	56.4	-43.0	8.2	9.2	17.6	25007.9
1372.000	54.6	-44.0	8.3	9.4	17.8	25007.9
1372.100	53.7	-43.8	8.3	9.4	18.2	25007.9
1372.200	53.2	-44.2	8.3	9.4	18.5	25007.9
1372.300	50.0	-45.5	8.3	9.3	18.6	25008.0
1372.400	54.6	-46.2	8.3	9.4	18.4	25007.9
1372.500	52.7	-46.3	8.3	9.2	17.9	25008.0
1372.600	52.7	-46.5	8.4	9.3	17.8	25008.1
1372.700	53.2	-46.6	8.4	9.4	17.5	25008.1
1372.800	55.5	-46.4	8.4	9.0	17.2	25008.2
1372.900	54.1	-46.8	8.7	9.3	17.0	25008.5
1373.000	61.1	-46.5	8.6	9.4	17.2	25008.3
1373.100	65.7	-47.1	8.8	9.3	17.3	25008.6
1373.200	65.2	-47.8	8.9	9.5	17.0	25008.7
1373.300	66.1	-47.6	8.8	9.6	16.8	25008.5
1373.400	70.3	-47.4	9.0	9.5	16.4	25008.8
1373.500	70.3	-47.1	8.9	9.6	16.1	25008.7
1373.600	70.8	-47.2	9.0	9.7	16.1	25008.8
1373.700	71.7	-47.0	9.1	9.4	16.1	25009.0
1373.800	79.6	-47.0	9.1	9.8	16.2	25008.9
1373.900	78.6	-47.2	9.0	9.8	16.4	25008.7
1374.000	81.4	-47.5	8.9	9.8	16.4	25008.6
1374.100	78.2	-47.8	9.0	9.8	16.5	25008.7
1374.200	74.9	-47.9	8.9	9.9	16.9	25008.6
1374.300	76.3	-48.1	8.9	9.8	17.2	25008.6
1374.400	77.2	-48.5	8.8	10.0	17.5	25008.4
1374.500	74.0	-48.8	8.7	9.9	17.7	25008.3
1374.600	74.9	-49.3	8.8	9.8	17.6	25008.5
1374.700	78.6	-49.5	8.9	9.9	17.4	25008.6
1374.800	84.6	-49.8	8.8	10.1	17.4	25008.4
1374.900	81.4	-50.1	8.8	9.8	17.1	25008.5
1375.000	85.1	-50.5	9.0	9.9	16.7	25008.7
1375.100	83.7	-50.7	8.9	10.2	16.4	25008.5
1375.200	84.6	-49.9	9.0	9.9	16.3	25008.7
1375.300	86.0	-50.3	9.1	10.0	16.5	25008.8
1375.400	90.2	-51.0	9.1	10.1	16.5	25008.8
1375.500	92.5	-51.2	9.2	10.2	16.6	25008.9
1375.600	93.4	-51.3	9.3	10.2	16.5	25009.0
1375.700	92.0	-51.5	9.4	10.4	16.2	25009.1
1375.800	89.7	-51.9	9.4	10.4	16.2	25009.1
1375.900	84.2	-52.3	9.4	10.5	16.2	25009.0
1376.000	81.9	-52.6	9.4	10.6	16.4	25009.0
1376.100	80.9	-52.5	9.4	10.8	16.6	25008.9
1376.200	81.4	-53.0	9.5	10.8	16.6	25009.1
1376.300	80.0	-53.3	9.4	10.8	16.8	25008.9
1376.400	78.6	-53.8	9.6	10.7	16.8	25009.2
1376.500	72.6	-53.8	9.4	10.7	16.9	25009.0
1376.600	71.2	-54.2	9.5	10.9	17.0	25009.0
1376.700	70.8	-54.7	9.4	10.8	16.9	25008.9
1376.800	67.5	-55.2	9.6	10.7	17.1	25009.2
1376.900	67.5	-55.5	9.4	10.9	17.5	25008.9
1377.000	68.9	-56.0	9.5	11.0	17.9	25009.0
1377.100	67.5	-56.3	9.6	11.0	18.0	25009.1
1377.200	64.8	-56.6	9.5	11.0	17.9	25009.0
1377.300	61.5	-56.8	9.5	10.8	17.8	25009.1
1377.400	67.1	-57.2	9.5	10.8	17.5	25009.1
1377.500	67.5	-57.5	9.6	11.0	17.1	25009.1
1377.600	69.4	-57.8	9.7	10.8	16.7	25009.3
1377.700	66.1	-57.7	9.9	11.0	16.2	25009.5
1377.800	68.9	-57.8	10.0	11.2	16.0	25009.6
1377.900	73.5	-58.0	10.1	11.0	15.9	25009.8
1378.000	72.2	-58.2	10.2	11.0	15.8	25009.9
1378.100	72.2	-58.3	10.4	11.1	15.8	25010.2
1378.200	75.4	-58.7	10.4	11.0	15.8	25010.2
1378.300	74.9	-58.8	10.6	11.1	16.0	25010.4
1378.400	79.6	-59.2	10.6	11.4	16.1	25010.3
1378.500	74.0	-59.5	10.6	11.4	16.3	25010.3
1378.600	75.4	-59.7	10.6	11.3	16.5	25010.4
1378.700	79.6	-60.0	10.8	11.5	17.0	25010.6
1378.800	81.9	-60.4	10.6	11.5	17.4	25010.3
1378.900	83.3	-61.2	10.7	11.6	18.3	25010.4
1379.000	82.3	-63.3	10.6	11.8	19.0	25010.2
1379.100	84.2	-64.0	10.9	11.6	19.5	25010.7
1379.200	87.0	-64.6	10.8	11.7	19.7	25010.5
1379.300	86.5	-64.7	11.0	11.7	19.8	25010.8
1379.400	89.7	-64.0	11.2	11.7	19.8	25011.0
1379.500	90.2	-65.4	11.4	11.7	19.9	25011.3
1379.600	91.6	-65.6	11.4	12.1	19.8	25011.2
1379.700	95.3	-66.1	11.8	12.0	19.7	25011.7
1379.800	94.4	-65.6	11.8	12.2	19.7	25011.7
1379.900	99.4	-66.1	12.0	12.2	19.8	25011.9
1380.000	98.1	-66.8	12.2	12.2	19.8	25012.2
1380.100	97.1	-67.5	12.5	12.1	19.8	25012.6
1380.200	101.3	-67.6	12.8	12.3	20.0	25013.0
1380.300	100.8	-67.1	13.0	12.3	19.9	25013.2
1380.400	102.2	-67.9	13.2	12.1	20.1	25013.6
1380.500	102.2	-68.2	13.6	12.2	20.1	25014.1
1380.600	101.8	-68.3	13.9	12.3	19.7	25014.4
1380.700	102.7	-68.2	14.3	12.3	19.3	25015.0
1380.800	102.2	-67.9	14.5	12.5	19.0	25015.2
1380.900	104.1	-68.0	14.8	12.5	18.8	25015.6
1381.000	105.9	-68.0	15.1	12.5	19.1	25016.0
1381.100	107.3	-67.8	15.4	12.7	19.6	25016.3
1381.200	105.0	-68.1	15.6	12.8	20.1	25016.5
1381.300	102.7	-69.1	15.7	12.6	20.5	25016.7
1381.400	99.4	-68.6	15.8	12.9	21.2	25016.8
1381.500	101.8	-69.0	15.9	13.2	21.9	25016.8
1381.600	96.2	-69.1	16.4	13.1	22.8	25017.5
1381.700	90.7	-69.3	16.8	13.3	23.5	25018.0
1381.800	87.0	-69.1	17.0	13.6	24.2	25018.1
1381.900	81.4	-69.2	17.3	13.6	24.7	25018.5
1382.000	75.4	-70.0	17.8	13.8	25.2	25019.1
1382.100	69.4	-70.7	18.3	14.2	25.4	25019.7
1382.200	69.4	-70.2	18.7	14.4	25.4	25020.1
1382.300	70.3	-70.0	19.2	14.6	25.6	25020.7
1382.400	68.0	-70.0	19.8	14.8	25.7	25021.5
1382.500	74.5	-70.2	20.0	15.0	26.0	25021.7
1382.600	72.6	-70.4	20.4	15.3	25.9	25022.1
1382.700	75.4	-70.9	20.9	15.4	26.0	25022.7
1382.800	80.0	-71.1	21.3	15.7	25.8	25023.2
1382.900	83.3	-71.1	21.5	15.8	25.7	25023.4
1383.000	85.6	-71.6	21.5	16.0	25.4	25023.3
1383.100	88.8	-72.1	21.7	16.0	25.2	25023.6
1383.200	92.5	-71.8	21.8	16.3	25.0	25023.6
1383.300	93.9	-72.1	22.0	16.7	24.9	25023.8
1383.400	95.3	-72.3	22.3	16.6	24.9	25024.2
1383.500	98.1	-72.7	22.4	17.0	24.8	25024.2
1383.600	89.7	-73.4	22.4	17.1	24.9	25024.2
1383.700	90.7	-73.6	22.7	17.4	24.8	25024.5
1383.800	92.5	-73.8	22.8	17.5	24.8	25024.6
