~Version Information
VERS.                2.0:  CWLS LOG ASCII STANDARD -VERSION 2.0
~WELL INFORMATION BLOCK
#MNEM.UNIT       DATA		            DESCRIPTION OF MNEMONIC
#---------    -------------            ------------------------
STRT.FT  1.200                          :START DEPTH
STOP.FT  1599.200                       :STOP DEPTH
STEP.FT  0.100                          :STEP    UP_HOLE
NULL.    -999.25                        :NULL VALUE
COMP.                             MDGS  :COMPANY
WELL.                           SMBC39  :WELL
FLD .                      Persimmon H  :FIELD
LOC .    None  None  None               :LOCATION
CNTY.                       St. Mary's  :COUNTY
STAT.                    Md.            :STATE
SRVC.           None                    :SERVICE COMPANY
DATE.   03/11/02                        :LOG DATE
UWI .                       	         :UNIQUE WELL ID
LIC .                                   :LICENSE NUMBER
~Curve Information Block
#MNEM.UNIT      API CODE     Curve Description
#---------    -------------  ------------------------
DEPT     .FT        00 001 00 00          :  1  DEPTH
GAM(NAT) .API-GR    00 310 00 00          :  2             GAM(NAT)
SP       .MV        00 010 00 00          :  3                   SP
RES(16N) .OHM-M     00 040 00 00          :  4             RES(16N)
RES(64N) .OHM-M     00 060 00 00          :  5             RES(64N)
RES      .OHM       00 000 00 00          :  6                  RES
LATERAL  .OHM-M     00 070 00 00          :  7              LATERAL
~Parameter Information Block
#MNEM.UNIT   Information     Description
#---------- ---------------  ------------------------
FILE.      ORIGINAL           :File Type
FIID.      8044A              :File Type Identifier
VERS.      1.0                :System Version
SER .      1                  :System Serial Number
TRUK.      0.0                :Truck Calibration Number
TOOL.         904             :Tool Serial Number
TIME.      1205               :Time    HrHrMinMin
LAT .          None           :Latitude
LON .          None           :Longitude
LMF .       Grnd. L           :Log Measured From
DMF .       Grnd. L           :Driller Measured From
PD  .          None           :Permanent Data
PDEV.          None           :Elevation Permanent Data
EKB .M         None           :Elevation Kelly Bushing
ELEV.DF        None           :Elevation DF
EGL .M         None           :Elevation Ground Level
DRDP.          1600           :Driller's Depth
CASD.        12               :Casing Diameter
CASB.            40           :Casing Bottom
CASX.         Steel           :Casing Type
CAST.         0               :Casing Thickness
TNOC.          None           :Time Circulation Stopped
LOGU.       None              :Logging Unit
RECB.        A. McThena       :Recorded By
OSR1.          None           :Other Services
OSR2.          None           :Other Services
OSR3.          None           :Other Services
BS  .MM          11           :Bit Size
MST .                         :Mean Surface Temperature
TGRD.        0                :Temperature Gradiant
MAGN.             0           :Magnetic Declination
MDEN.      2.71               :Density Matrix
MATR.       Dolomite          :Neutron Matrix
DTMT.            54           :Delta T Matrix
DTFL.                         :Delta T Fluid
MUDS.               0         :Mud Sample Source
MRS .           0             :Mud Resistivity
MTP .           0             :Mud Temperature
MFRS.                         :Resistivity Mud Filtrate
MFTP.                         :Temperature Mud Filtrate
MCRS.         0               :Resistivity Mud Cake
MCTP.                         :Temperature Mud Cake
FTYP.             0           :Fluid Type
FD  .K/M3                     :Fluid Density
DFV .S                        :Fluid Viscosity
FPH .                         :Fuild PH
ELCO.        2500             :Electron Cutoff
~Other Information
#MNEM.UNIT  Information      Description
#---------- ---------------  ------------------------
# --------------------------
#<------------------LOG DATA-------------------
#DEPT	GAM(NAT)	SP	RES(16N)	RES(64N)	RES	LATERAL
#FT	API-GR	MV	OHM-M	OHM-M	OHM	OHM-M
~A DEPTH  GAM(NAT) SP    RES(16N) RES(64N) RES      LATERAL  
# ...
743.100	72.6	33.5	29.7	31.8	26.6	25029.0
743.200	71.7	33.6	30.0	31.9	26.6	25029.4
743.300	70.8	33.5	29.9	31.9	26.5	25029.2
743.400	73.5	33.5	30.0	31.9	26.5	25029.4
743.500	69.4	33.5	29.9	32.2	26.5	25029.1
743.600	68.5	33.8	30.0	32.4	26.5	25029.2
743.700	66.1	34.0	30.2	32.8	26.5	25029.3
743.800	71.7	34.3	30.4	32.8	26.5	25029.6
743.900	74.9	34.3	30.7	33.0	26.4	25029.9
744.000	75.4	34.3	30.9	33.1	26.4	25030.2
744.100	73.5	34.3	31.0	33.3	26.4	25030.2
744.200	69.4	34.3	31.1	33.6	26.4	25030.3
744.300	68.5	34.5	31.3	33.6	26.4	25030.5
744.400	68.5	34.5	31.4	33.7	26.4	25030.6
744.500	65.7	34.8	31.4	33.8	26.4	25030.6
744.600	66.1	34.9	31.4	33.8	26.5	25030.6
744.700	67.1	35.3	31.3	34.2	26.5	25030.3
744.800	65.7	35.5	31.2	34.2	26.4	25030.2
744.900	61.5	35.7	31.1	34.5	26.5	25030.0
745.000	55.0	35.8	30.8	34.6	26.6	25029.5
745.100	53.7	36.0	30.8	34.8	26.5	25029.5
745.200	55.0	36.3	30.6	35.4	26.6	25029.0
745.300	55.5	36.4	30.5	35.2	26.8	25028.9
745.400	54.1	36.5	30.5	35.6	27.0	25028.8
745.500	51.8	36.8	30.5	35.6	27.1	25028.8
745.600	53.7	37.2	30.5	35.9	27.0	25028.7
745.700	57.8	37.3	30.6	36.1	26.8	25028.8
745.800	56.9	37.3	30.7	36.1	26.7	25028.9
745.900	57.4	37.5	30.9	36.1	26.6	25029.2
746.000	60.6	37.6	30.9	36.1	26.7	25029.2
746.100	61.5	38.0	31.3	36.2	26.7	25029.7
746.200	63.8	38.1	31.6	36.3	26.7	25030.0
746.300	65.7	38.2	31.8	36.4	26.7	25030.3
746.400	65.2	38.3	31.8	36.6	26.7	25030.2
746.500	63.8	38.3	31.8	36.6	26.6	25030.2
746.600	67.5	38.3	31.8	36.6	26.6	25030.2
746.700	64.3	38.2	31.9	36.7	26.8	25030.3
746.800	59.7	38.2	32.2	36.6	26.8	25030.7
746.900	63.4	38.0	32.3	36.8	26.6	25030.8
747.000	63.8	37.7	32.5	36.8	26.9	25031.1
747.100	60.1	37.6	32.6	37.0	26.8	25031.1
747.200	64.3	37.6	32.8	36.9	26.8	25031.4
747.300	65.7	37.8	32.7	36.7	26.8	25031.4
747.400	65.2	38.0	32.9	37.0	26.8	25031.5
747.500	68.9	38.0	32.9	36.8	26.8	25031.6
747.600	72.2	37.9	33.0	37.2	26.8	25031.6
747.700	69.8	37.8	33.2	37.5	26.8	25031.8
747.800	67.5	37.9	33.3	37.3	26.8	25032.0
747.900	68.5	38.0	33.3	37.7	26.8	25031.8
748.000	66.6	38.0	33.3	37.9	26.7	25031.8
748.100	67.1	38.3	33.4	38.3	26.8	25031.8
748.200	65.7	38.5	33.4	38.5	26.6	25031.7
748.300	62.4	38.9	33.5	38.6	26.6	25031.8
748.400	62.4	39.2	33.5	39.1	26.5	25031.6
748.500	63.8	39.5	33.5	39.2	26.6	25031.6
748.600	63.8	39.7	33.6	39.6	26.6	25031.6
748.700	62.9	39.8	33.6	39.8	26.6	25031.5
748.800	62.4	40.0	33.7	39.9	26.6	25031.6
748.900	67.1	40.3	33.6	40.0	26.5	25031.5
749.000	70.3	40.6	33.7	40.2	26.4	25031.5
749.100	71.2	40.8	33.6	40.5	26.3	25031.3
749.200	68.0	40.9	33.9	40.8	26.3	25031.6
749.300	68.5	41.0	33.8	40.6	26.3	25031.5
749.400	68.0	41.2	34.2	41.0	26.3	25031.9
749.500	69.8	41.3	34.3	40.9	26.3	25032.1
749.600	65.2	41.5	34.6	41.3	26.3	25032.4
749.700	62.4	41.6	34.8	41.2	26.4	25032.7
749.800	63.8	41.7	35.1	41.5	26.4	25033.0
749.900	62.0	41.8	35.3	41.6	26.5	25033.2
750.000	63.4	42.0	35.6	41.4	26.7	25033.7
750.100	61.1	42.0	35.8	41.6	26.8	25033.9
750.200	61.1	42.2	36.1	41.8	26.8	25034.2
750.300	65.2	42.2	36.4	41.9	26.9	25034.6
750.400	64.8	42.3	36.7	42.0	26.9	25034.9
750.500	66.6	42.3	37.1	41.9	26.9	25035.5
750.600	62.9	42.4	37.5	42.0	26.9	25036.0
750.700	62.0	42.5	37.6	42.0	26.8	25036.1
750.800	66.6	42.7	37.7	42.4	26.8	25036.1
750.900	64.3	42.6	38.1	42.6	26.7	25036.6
751.000	64.3	42.7	38.4	42.8	26.8	25036.9
751.100	61.1	42.8	38.6	42.8	27.0	25037.2
751.200	56.4	42.9	38.8	43.0	27.0	25037.4
751.300	52.7	43.1	38.8	42.9	27.2	25037.4
751.400	53.7	43.1	39.0	43.2	27.2	25037.6
751.500	54.1	43.1	39.2	43.4	27.4	25037.8
751.600	54.1	43.0	39.5	43.5	27.4	25038.2
751.700	55.5	43.1	39.6	43.5	27.4	25038.3
751.800	54.6	43.2	39.7	43.9	27.5	25038.3
751.900	50.9	43.1	39.8	44.1	27.4	25038.4
752.000	51.8	43.2	39.8	44.1	27.4	25038.4
752.100	56.0	43.2	40.0	44.4	27.5	25038.5
752.200	57.8	43.2	40.1	44.4	27.4	25038.7
752.300	62.0	43.2	40.2	44.6	27.5	25038.7
752.400	61.1	43.3	40.2	44.4	27.4	25038.8
752.500	56.0	43.3	40.3	44.4	27.5	25038.9
752.600	55.5	43.3	40.3	44.5	27.4	25038.9
752.700	55.5	43.6	40.2	44.4	27.4	25038.8
752.800	54.6	43.5	40.3	44.4	27.4	25038.9
752.900	56.4	43.4	40.3	44.4	27.4	25038.9
753.000	57.8	43.3	40.3	44.3	27.4	25039.0
753.100	55.5	43.3	40.3	44.0	27.3	25039.1
753.200	53.7	43.3	40.4	43.8	27.2	25039.3
753.300	52.3	43.4	40.3	43.7	27.2	25039.2
753.400	50.9	43.5	40.4	43.0	27.2	25039.5
753.500	52.7	43.5	40.4	42.8	27.1	25039.6
753.600	53.7	43.5	40.4	42.4	27.1	25039.7
753.700	52.3	43.3	40.2	42.0	27.1	25039.6
753.800	51.3	43.7	40.2	41.9	27.1	25039.6
753.900	55.0	43.7	40.0	41.3	27.0	25039.6
754.000	57.8	43.5	39.8	41.2	27.2	25039.3
754.100	56.4	43.5	39.7	41.0	27.3	25039.3
754.200	56.9	43.5	39.7	40.8	27.4	25039.3
754.300	56.0	43.3	39.5	41.1	27.5	25039.0
754.400	57.4	43.3	39.4	41.0	27.6	25038.9
754.500	57.8	43.1	39.1	40.9	27.7	25038.5
754.600	57.4	43.0	39.1	40.8	27.9	25038.5
754.700	60.1	42.8	38.8	40.8	28.1	25038.1
754.800	65.2	42.7	38.8	40.5	28.2	25038.2
754.900	66.6	42.8	38.7	40.3	28.3	25038.2
755.000	62.0	42.7	38.5	40.2	28.3	25037.9
755.100	59.2	42.5	38.4	39.8	28.4	25037.9
755.200	58.7	42.5	38.0	39.7	28.2	25037.4
755.300	61.5	42.3	37.9	39.1	28.3	25037.5
755.400	62.0	42.2	37.6	38.9	28.2	25037.2
755.500	59.7	42.3	37.3	39.0	28.2	25036.7
755.600	57.8	42.5	36.7	38.8	28.2	25036.0
755.700	56.0	42.5	36.1	38.7	28.2	25035.2
755.800	51.3	42.5	35.5	38.5	28.1	25034.5
755.900	49.0	42.4	34.9	38.1	28.0	25033.8
756.000	46.7	42.3	34.4	38.0	27.9	25033.2
756.100	48.1	42.3	34.2	37.7	27.7	25033.0
756.200	48.1	42.5	34.1	37.7	27.5	25032.9
756.300	48.1	42.5	34.1	37.4	27.2	25033.0
756.400	46.3	42.6	34.1	37.5	26.8	25033.0
756.500	45.3	42.7	34.2	37.6	26.4	25033.1
756.600	47.2	42.8	34.1	37.4	25.9	25033.0
756.700	49.5	42.9	34.2	37.3	25.8	25033.2
756.800	50.9	42.8	34.0	37.3	25.6	25032.9
756.900	55.0	42.7	34.0	37.3	25.6	25032.9
757.000	53.7	42.7	33.8	37.6	25.9	25032.5
757.100	57.4	42.6	33.7	37.7	26.3	25032.4
757.200	56.0	42.6	33.6	38.1	26.7	25032.1
757.300	56.9	42.5	33.6	38.1	26.9	25032.1
757.400	57.8	42.3	33.6	38.2	27.2	25032.1
757.500	61.5	42.1	33.6	38.4	27.5	25032.0
757.600	63.4	42.0	33.7	38.4	27.6	25032.1
757.700	64.3	42.2	33.6	38.7	27.7	25031.9
757.800	67.5	42.3	33.9	38.7	27.7	25032.3
757.900	70.3	42.3	34.1	38.8	27.8	25032.5
758.000	67.5	42.5	34.3	38.9	27.7	25032.8
758.100	70.3	42.5	34.4	38.9	27.6	25032.9
758.200	72.2	42.5	34.7	39.3	27.6	25033.2
758.300	75.9	42.6	34.8	39.3	27.4	25033.3
758.400	76.8	42.8	35.1	39.6	27.2	25033.6
758.500	78.2	42.8	35.0	39.7	27.1	25033.4
758.600	77.7	42.8	35.2	39.5	26.9	25033.8
758.700	80.5	42.9	35.3	39.7	26.8	25033.8
758.800	81.4	43.0	35.2	39.8	26.6	25033.7
758.900	78.6	43.0	35.2	40.1	26.6	25033.6
759.000	79.1	42.8	35.1	40.2	26.4	25033.4
759.100	81.9	42.8	34.9	40.3	26.3	25033.1
759.200	76.3	42.8	34.7	40.3	26.4	25032.8
759.300	74.0	43.0	34.4	40.0	26.2	25032.5
759.400	74.5	43.2	34.2	40.2	26.2	25032.2
759.500	75.4	43.3	34.2	40.2	26.2	25032.2
759.600	74.9	43.5	33.9	40.2	26.2	25031.8
759.700	71.7	43.5	33.6	40.4	26.3	25031.3
759.800	65.2	43.7	33.6	40.5	26.4	25031.3
759.900	65.2	43.8	33.7	40.8	26.5	25031.3
760.000	66.1	44.0	33.5	41.0	26.4	25031.0
760.100	63.8	44.1	33.4	41.2	26.4	25030.8
760.200	61.5	44.0	33.3	41.4	26.3	25030.6
760.300	68.0	44.0	33.1	41.3	26.2	25030.4
760.400	70.3	44.0	33.4	41.5	26.0	25030.7
760.500	68.0	43.9	33.1	41.6	26.0	25030.3
760.600	68.5	43.9	33.1	41.7	26.0	25030.2
760.700	66.6	43.8	33.1	41.8	26.0	25030.2
760.800	70.3	44.1	33.2	41.7	26.1	25030.4
760.900	74.5	44.3	33.2	41.9	26.0	25030.3
761.000	70.8	44.6	33.1	41.8	26.1	25030.2
761.100	69.4	44.8	32.9	41.8	26.0	25029.9
761.200	69.8	44.9	32.7	41.7	26.1	25029.7
761.300	72.2	44.8	32.4	41.4	26.3	25029.4
761.400	69.4	44.7	32.3	41.6	26.5	25029.2
761.500	66.1	44.7	32.1	41.6	26.7	25028.9
761.600	64.8	44.8	32.0	41.4	27.1	25028.9
761.700	62.0	44.8	32.0	41.2	27.4	25028.9
761.800	61.5	44.8	32.0	41.2	27.6	25028.9
761.900	56.9	44.8	32.0	40.8	27.8	25029.1
762.000	56.9	44.8	32.1	40.7	27.6	25029.2
762.100	60.1	44.8	32.2	40.6	27.2	25029.4
762.200	60.6	44.8	32.2	40.6	27.1	25029.4
762.300	58.7	44.8	32.5	40.5	26.9	25029.8
762.400	58.7	44.9	32.6	40.5	26.8	25030.0
762.500	57.8	44.8	32.7	40.4	26.8	25030.1
762.600	56.0	44.7	32.8	40.5	26.8	25030.2
