~Version Information
VERS.                2.0:  CWLS LOG ASCII STANDARD -VERSION 2.0
~WELL INFORMATION BLOCK
#MNEM.UNIT       DATA		            DESCRIPTION OF MNEMONIC
#---------    -------------            ------------------------
STRT.FT  1.200                          :START DEPTH
STOP.FT  1599.200                       :STOP DEPTH
STEP.FT  0.100                          :STEP    UP_HOLE
NULL.    -999.25                        :NULL VALUE
COMP.                             MDGS  :COMPANY
WELL.                           SMBC39  :WELL
FLD .                      Persimmon H  :FIELD
LOC .    None  None  None               :LOCATION
CNTY.                       St. Mary's  :COUNTY
STAT.                    Md.            :STATE
SRVC.           None                    :SERVICE COMPANY
DATE.   03/11/02                        :LOG DATE
UWI .                       	         :UNIQUE WELL ID
LIC .                                   :LICENSE NUMBER
~Curve Information Block
#MNEM.UNIT      API CODE     Curve Description
#---------    -------------  ------------------------
DEPT     .FT        00 001 00 00          :  1  DEPTH
GAM(NAT) .API-GR    00 310 00 00          :  2             GAM(NAT)
SP       .MV        00 010 00 00          :  3                   SP
RES(16N) .OHM-M     00 040 00 00          :  4             RES(16N)
RES(64N) .OHM-M     00 060 00 00          :  5             RES(64N)
RES      .OHM       00 000 00 00          :  6                  RES
LATERAL  .OHM-M     00 070 00 00          :  7              LATERAL
~Parameter Information Block
#MNEM.UNIT   Information     Description
#---------- ---------------  ------------------------
FILE.      ORIGINAL           :File Type
FIID.      8044A              :File Type Identifier
VERS.      1.0                :System Version
SER .      1                  :System Serial Number
TRUK.      0.0                :Truck Calibration Number
TOOL.         904             :Tool Serial Number
TIME.      1205               :Time    HrHrMinMin
LAT .          None           :Latitude
LON .          None           :Longitude
LMF .       Grnd. L           :Log Measured From
DMF .       Grnd. L           :Driller Measured From
PD  .          None           :Permanent Data
PDEV.          None           :Elevation Permanent Data
EKB .M         None           :Elevation Kelly Bushing
ELEV.DF        None           :Elevation DF
EGL .M         None           :Elevation Ground Level
DRDP.          1600           :Driller's Depth
CASD.        12               :Casing Diameter
CASB.            40           :Casing Bottom
CASX.         Steel           :Casing Type
CAST.         0               :Casing Thickness
TNOC.          None           :Time Circulation Stopped
LOGU.       None              :Logging Unit
RECB.        A. McThena       :Recorded By
OSR1.          None           :Other Services
OSR2.          None           :Other Services
OSR3.          None           :Other Services
BS  .MM          11           :Bit Size
MST .                         :Mean Surface Temperature
TGRD.        0                :Temperature Gradiant
MAGN.             0           :Magnetic Declination
MDEN.      2.71               :Density Matrix
MATR.       Dolomite          :Neutron Matrix
DTMT.            54           :Delta T Matrix
DTFL.                         :Delta T Fluid
MUDS.               0         :Mud Sample Source
MRS .           0             :Mud Resistivity
MTP .           0             :Mud Temperature
MFRS.                         :Resistivity Mud Filtrate
MFTP.                         :Temperature Mud Filtrate
MCRS.         0               :Resistivity Mud Cake
MCTP.                         :Temperature Mud Cake
FTYP.             0           :Fluid Type
FD  .K/M3                     :Fluid Density
DFV .S                        :Fluid Viscosity
FPH .                         :Fuild PH
ELCO.        2500             :Electron Cutoff
~Other Information
#MNEM.UNIT  Information      Description
#---------- ---------------  ------------------------
# --------------------------
#<------------------LOG DATA-------------------
#DEPT	GAM(NAT)	SP	RES(16N)	RES(64N)	RES	LATERAL
#FT	API-GR	MV	OHM-M	OHM-M	OHM	OHM-M
~A DEPTH  GAM(NAT) SP    RES(16N) RES(64N) RES      LATERAL  
# ...
1152.600	63.8	44.9	7.0	9.0	13.5	25006.3
1152.700	62.9	44.5	6.9	9.0	13.6	25006.2
1152.800	64.8	44.3	6.9	9.1	13.5	25006.2
1152.900	62.0	43.9	6.9	9.2	13.4	25006.1
1153.000	60.6	43.3	6.9	9.2	13.4	25006.1
1153.100	61.1	42.7	6.8	9.2	13.4	25006.0
1153.200	58.7	42.3	6.9	9.2	13.3	25006.1
1153.300	60.1	42.0	6.8	9.4	13.4	25005.9
1153.400	58.3	41.3	6.9	9.2	13.4	25006.1
1153.500	54.1	40.8	6.9	9.4	13.4	25006.1
1153.600	53.7	45.5	6.9	9.1	13.3	25006.2
1153.700	56.0	47.5	6.9	9.0	13.4	25006.2
1153.800	53.7	47.3	6.8	9.2	13.3	25006.0
1153.900	51.8	47.0	6.9	9.2	13.4	25006.1
1154.000	56.9	47.0	7.0	9.1	13.2	25006.3
1154.100	58.3	47.2	6.8	9.4	13.4	25005.9
1154.200	59.7	47.0	6.8	9.2	13.5	25006.0
1154.300	60.6	46.8	6.9	9.3	13.4	25006.1
1154.400	60.1	46.7	6.9	9.2	13.5	25006.1
1154.500	60.6	46.7	6.9	9.2	13.5	25006.1
1154.600	60.1	46.6	6.8	9.2	13.5	25006.0
1154.700	61.5	46.5	6.9	9.1	13.6	25006.2
1154.800	59.2	46.3	6.9	9.1	13.4	25006.2
1154.900	59.2	46.2	7.0	9.2	13.5	25006.3
1155.000	60.1	46.1	6.9	9.0	13.5	25006.2
1155.100	56.9	46.0	6.8	9.2	13.6	25006.0
1155.200	58.3	45.9	6.9	9.2	13.6	25006.1
1155.300	56.4	45.9	6.9	8.9	13.7	25006.2
1155.400	52.7	45.8	6.8	9.3	13.7	25006.0
1155.500	51.3	45.5	6.8	9.1	13.7	25006.0
1155.600	51.3	45.2	6.8	8.9	13.8	25006.1
1155.700	50.9	45.1	6.6	8.8	13.7	25005.9
1155.800	50.4	45.0	6.9	8.6	13.7	25006.3
1155.900	52.3	45.0	6.8	8.8	13.8	25006.1
1156.000	53.7	44.9	6.9	8.7	13.7	25006.3
1156.100	52.7	44.8	6.9	8.9	13.7	25006.2
1156.200	52.3	44.7	6.8	9.1	13.7	25006.0
1156.300	48.1	44.5	7.0	9.0	13.6	25006.3
1156.400	49.0	44.5	6.9	9.1	13.8	25006.2
1156.500	51.8	44.3	7.0	9.2	13.8	25006.3
1156.600	53.2	44.2	7.0	9.0	13.8	25006.3
1156.700	53.7	44.0	7.0	9.1	13.8	25006.3
1156.800	58.3	44.0	7.0	9.2	13.9	25006.3
1156.900	54.1	43.9	7.0	9.2	13.9	25006.3
1157.000	52.3	43.8	7.1	9.4	14.1	25006.3
1157.100	52.3	43.7	7.0	9.3	14.3	25006.2
1157.200	55.5	43.6	7.2	9.2	14.6	25006.5
1157.300	55.5	43.7	7.1	9.4	14.5	25006.3
1157.400	62.4	43.5	7.2	9.4	14.7	25006.5
1157.500	61.5	43.3	7.2	9.5	14.7	25006.4
1157.600	64.3	43.3	7.2	9.2	14.7	25006.5
1157.700	65.7	43.2	7.2	9.2	14.7	25006.5
1157.800	63.4	43.0	7.2	9.2	14.8	25006.5
1157.900	60.1	42.9	7.2	9.1	14.9	25006.6
1158.000	62.9	42.7	7.3	9.0	15.0	25006.7
1158.100	65.7	42.6	7.3	9.2	15.2	25006.7
1158.200	66.6	42.6	7.4	9.2	15.4	25006.8
1158.300	63.4	42.6	7.5	9.2	15.4	25006.9
1158.400	65.2	42.5	7.6	9.3	15.2	25007.0
1158.500	62.4	42.2	7.8	9.1	15.0	25007.4
1158.600	64.3	41.8	7.8	9.2	14.8	25007.3
1158.700	62.4	41.8	7.8	9.0	14.9	25007.4
1158.800	60.1	41.6	8.0	8.8	15.1	25007.7
1158.900	62.4	41.4	7.9	9.0	15.1	25007.5
1159.000	64.8	41.0	8.1	9.2	15.0	25007.7
1159.100	64.8	40.8	8.1	9.3	15.3	25007.7
1159.200	62.4	40.7	8.3	9.3	15.5	25008.0
1159.300	66.1	40.6	8.3	9.0	15.9	25008.1
1159.400	69.8	40.5	8.4	9.3	16.3	25008.1
1159.500	68.9	40.4	8.3	9.2	16.6	25008.0
1159.600	68.0	40.3	8.4	9.2	16.7	25008.1
1159.700	70.3	40.0	8.4	9.2	17.0	25008.1
1159.800	70.8	40.0	8.4	9.2	17.3	25008.1
1159.900	72.2	39.8	8.4	9.1	17.5	25008.2
1160.000	69.8	39.5	8.5	9.2	17.5	25008.3
1160.100	69.8	39.3	8.5	9.0	17.7	25008.3
1160.200	74.0	39.1	8.8	9.3	17.8	25008.6
1160.300	75.9	39.0	8.7	9.3	17.8	25008.5
1160.400	74.0	38.8	9.0	9.3	18.0	25008.9
1160.500	74.9	38.8	9.0	9.5	17.9	25008.8
1160.600	71.2	38.5	9.1	9.3	17.9	25009.0
1160.700	70.3	38.3	9.1	9.6	18.0	25008.9
1160.800	66.1	38.3	9.2	9.5	18.0	25009.1
1160.900	66.6	38.3	9.2	9.2	18.2	25009.2
1161.000	67.5	38.3	9.4	9.4	18.2	25009.4
1161.100	67.5	38.1	9.4	9.2	18.4	25009.5
1161.200	67.1	38.0	9.5	9.2	18.4	25009.6
1161.300	60.1	38.0	9.4	9.4	18.5	25009.4
1161.400	58.7	37.9	9.6	9.2	18.5	25009.7
1161.500	55.0	37.8	9.5	9.3	18.6	25009.6
1161.600	53.7	37.5	9.6	9.4	18.6	25009.7
1161.700	57.4	37.5	9.5	9.5	18.7	25009.5
1161.800	57.8	37.5	9.6	9.4	18.6	25009.7
1161.900	61.1	37.4	9.6	9.4	18.4	25009.7
1162.000	61.5	37.3	9.5	9.2	18.3	25009.6
1162.100	60.6	37.1	9.6	9.2	18.2	25009.7
1162.200	62.4	37.0	9.7	9.5	18.1	25009.8
1162.300	61.5	36.8	9.7	9.5	18.1	25009.8
1162.400	63.8	36.5	9.7	9.8	18.2	25009.7
1162.500	65.2	36.3	9.8	9.7	18.4	25009.8
1162.600	68.0	36.1	9.9	9.7	18.4	25010.0
1162.700	63.8	36.1	10.0	9.5	18.3	25010.2
1162.800	63.4	35.9	10.0	9.5	18.2	25010.2
1162.900	62.9	35.8	10.0	9.6	18.0	25010.1
1163.000	63.8	35.7	9.9	9.8	18.0	25009.9
1163.100	62.9	35.5	10.0	9.7	18.0	25010.1
1163.200	61.1	35.3	10.0	10.0	18.0	25010.0
1163.300	60.6	35.2	10.1	10.0	18.1	25010.1
1163.400	60.1	35.0	9.8	10.2	18.2	25009.7
1163.500	60.1	34.8	10.0	10.1	18.1	25010.0
1163.600	56.9	34.8	10.0	9.9	18.4	25010.0
1163.700	56.9	34.5	10.0	10.0	18.6	25010.0
1163.800	60.6	34.3	10.0	9.9	18.8	25010.0
1163.900	62.9	34.2	10.1	9.9	18.9	25010.2
1164.000	65.2	33.8	10.0	10.3	18.8	25009.9
1164.100	64.3	33.7	10.2	10.2	18.6	25010.2
1164.200	64.3	33.6	10.1	10.2	18.5	25010.1
1164.300	65.7	33.5	10.1	10.4	18.4	25010.0
1164.400	67.5	33.5	10.3	10.4	18.3	25010.3
1164.500	68.9	33.2	10.2	10.4	18.6	25010.1
1164.600	69.4	32.8	10.2	10.5	18.9	25010.1
1164.700	70.3	32.5	10.2	10.2	19.3	25010.2
1164.800	69.8	32.2	10.2	10.3	19.2	25010.2
1164.900	70.8	32.0	10.0	10.3	19.3	25009.9
1165.000	68.0	31.9	10.2	10.1	19.2	25010.2
1165.100	65.7	32.0	10.1	10.1	19.1	25010.1
1165.200	66.6	31.9	10.1	10.4	18.9	25010.0
1165.300	64.8	31.8	10.2	10.3	18.7	25010.2
1165.400	66.6	31.7	10.3	10.6	18.7	25010.2
1165.500	65.2	31.6	10.3	10.4	18.5	25010.3
1165.600	66.1	31.5	10.3	10.3	18.4	25010.3
1165.700	67.1	31.4	10.2	10.4	18.2	25010.1
1165.800	68.5	31.3	10.4	10.3	18.0	25010.4
1165.900	66.6	31.1	10.4	10.6	17.6	25010.3
1166.000	64.3	31.1	10.6	10.4	17.1	25010.7
1166.100	66.1	31.0	10.5	10.3	16.9	25010.6
1166.200	64.3	30.9	10.6	10.5	16.9	25010.6
1166.300	60.6	30.9	10.6	10.4	16.9	25010.7
1166.400	65.2	30.5	10.6	10.5	17.0	25010.6
1166.500	64.3	30.3	10.6	10.5	17.3	25010.6
1166.600	65.7	29.8	10.7	10.5	17.9	25010.8
1166.700	65.7	28.5	10.5	10.6	18.6	25010.5
1166.800	66.1	27.1	10.5	10.3	19.2	25010.6
1166.900	66.1	26.5	10.6	10.3	19.7	25010.7
1167.000	67.5	26.2	10.5	10.4	19.9	25010.5
1167.100	76.3	25.7	10.5	10.3	20.0	25010.6
1167.200	76.8	25.4	10.8	10.2	20.0	25011.0
1167.300	80.5	24.9	10.7	10.3	20.1	25010.8
1167.400	85.6	24.6	10.8	10.2	20.1	25011.0
1167.500	86.0	24.5	10.8	10.2	20.2	25011.0
1167.600	91.6	24.4	11.0	10.2	20.3	25011.3
1167.700	93.9	24.1	11.0	10.2	20.3	25011.3
1167.800	92.5	23.9	11.1	10.4	20.4	25011.3
1167.900	92.0	23.7	11.4	10.2	20.4	25011.8
1168.000	93.4	23.9	11.2	10.4	20.4	25011.5
1168.100	96.7	24.0	11.3	10.4	20.5	25011.6
1168.200	93.4	23.8	11.3	10.2	20.6	25011.7
1168.300	94.8	23.5	11.3	10.3	20.6	25011.6
1168.400	94.8	23.2	11.3	10.3	20.5	25011.6
1168.500	90.2	23.2	11.4	10.3	20.4	25011.8
1168.600	85.1	23.4	11.3	10.4	20.4	25011.6
1168.700	77.7	23.2	11.4	10.3	20.3	25011.8
1168.800	78.6	22.9	11.4	10.2	20.1	25011.8
1168.900	80.9	22.8	11.3	10.2	20.0	25011.7
1169.000	80.5	22.5	11.3	10.2	19.9	25011.7
1169.100	77.2	22.2	11.3	10.2	19.9	25011.7
1169.200	74.0	22.1	11.2	10.1	19.7	25011.6
1169.300	68.0	22.1	11.0	9.9	19.5	25011.4
1169.400	65.2	21.9	11.0	9.9	19.4	25011.4
1169.500	62.9	21.5	10.9	9.8	19.4	25011.3
1169.600	66.1	21.4	10.8	9.6	19.3	25011.2
1169.700	69.8	21.1	10.7	9.7	19.3	25011.0
1169.800	74.5	21.1	10.8	9.4	19.4	25011.3
1169.900	70.8	21.4	10.7	9.4	19.4	25011.1
1170.000	66.6	21.0	10.7	9.6	19.3	25011.1
1170.100	67.1	20.5	10.8	9.6	19.2	25011.2
1170.200	70.8	20.5	10.5	9.6	19.0	25010.8
1170.300	69.4	20.0	10.4	9.8	18.8	25010.6
1170.400	69.4	19.5	10.3	9.5	18.8	25010.6
1170.500	64.8	19.4	10.2	9.7	18.7	25010.4
1170.600	68.9	19.4	10.2	9.6	18.7	25010.4
1170.700	67.1	19.5	9.9	9.6	18.7	25010.0
1170.800	64.8	19.7	9.6	9.6	18.6	25009.6
1170.900	61.1	19.7	9.6	9.6	18.8	25009.6
1171.000	60.1	19.6	9.6	9.6	18.8	25009.6
1171.100	63.8	19.5	9.5	9.8	18.8	25009.4
1171.200	63.8	20.0	9.5	9.3	18.8	25009.6
1171.300	61.5	20.2	9.2	9.5	18.8	25009.1
1171.400	63.4	20.2	9.1	9.6	18.7	25008.9
1171.500	64.8	20.4	8.8	9.5	18.6	25008.6
1171.600	68.9	20.8	8.8	9.7	18.2	25008.5
1171.700	65.2	21.5	8.7	9.6	17.8	25008.4
1171.800	63.4	22.3	8.4	9.8	17.6	25007.9
1171.900	67.5	22.6	8.4	9.9	17.4	25007.9
1172.000	67.1	23.1	8.4	9.8	17.3	25007.9
1172.100	68.0	23.3	8.2	9.8	17.2	25007.7
1172.200	65.2	23.5	7.9	9.8	17.0	25007.3
