~Version Information
VERS.                2.0:  CWLS LOG ASCII STANDARD -VERSION 2.0
~WELL INFORMATION BLOCK
#MNEM.UNIT       DATA		            DESCRIPTION OF MNEMONIC
#---------    -------------            ------------------------
STRT.FT  1.200                          :START DEPTH
STOP.FT  1599.200                       :STOP DEPTH
STEP.FT  0.100                          :STEP    UP_HOLE
NULL.    -999.25                        :NULL VALUE
COMP.                             MDGS  :COMPANY
WELL.                           SMBC39  :WELL
FLD .                      Persimmon H  :FIELD
LOC .    None  None  None               :LOCATION
CNTY.                       St. Mary's  :COUNTY
STAT.                    Md.            :STATE
SRVC.           None                    :SERVICE COMPANY
DATE.   03/11/02                        :LOG DATE
UWI .                       	         :UNIQUE WELL ID
LIC .                                   :LICENSE NUMBER
~Curve Information Block
#MNEM.UNIT      API CODE     Curve Description
#---------    -------------  ------------------------
DEPT     .FT        00 001 00 00          :  1  DEPTH
GAM(NAT) .API-GR    00 310 00 00          :  2             GAM(NAT)
SP       .MV        00 010 00 00          :  3                   SP
RES(16N) .OHM-M     00 040 00 00          :  4             RES(16N)
RES(64N) .OHM-M     00 060 00 00          :  5             RES(64N)
RES      .OHM       00 000 00 00          :  6                  RES
LATERAL  .OHM-M     00 070 00 00          :  7              LATERAL
~Parameter Information Block
#MNEM.UNIT   Information     Description
#---------- ---------------  ------------------------
FILE.      ORIGINAL           :File Type
FIID.      8044A              :File Type Identifier
VERS.      1.0                :System Version
SER .      1                  :System Serial Number
TRUK.      0.0                :Truck Calibration Number
TOOL.         904             :Tool Serial Number
TIME.      1205               :Time    HrHrMinMin
LAT .          None           :Latitude
LON .          None           :Longitude
LMF .       Grnd. L           :Log Measured From
DMF .       Grnd. L           :Driller Measured From
PD  .          None           :Permanent Data
PDEV.          None           :Elevation Permanent Data
EKB .M         None           :Elevation Kelly Bushing
ELEV.DF        None           :Elevation DF
EGL .M         None           :Elevation Ground Level
DRDP.          1600           :Driller's Depth
CASD.        12               :Casing Diameter
CASB.            40           :Casing Bottom
CASX.         Steel           :Casing Type
CAST.         0               :Casing Thickness
TNOC.          None           :Time Circulation Stopped
LOGU.       None              :Logging Unit
RECB.        A. McThena       :Recorded By
OSR1.          None           :Other Services
OSR2.          None           :Other Services
OSR3.          None           :Other Services
BS  .MM          11           :Bit Size
MST .                         :Mean Surface Temperature
TGRD.        0                :Temperature Gradiant
MAGN.             0           :Magnetic Declination
MDEN.      2.71               :Density Matrix
MATR.       Dolomite          :Neutron Matrix
DTMT.            54           :Delta T Matrix
DTFL.                         :Delta T Fluid
MUDS.               0         :Mud Sample Source
MRS .           0             :Mud Resistivity
MTP .           0             :Mud Temperature
MFRS.                         :Resistivity Mud Filtrate
MFTP.                         :Temperature Mud Filtrate
MCRS.         0               :Resistivity Mud Cake
MCTP.                         :Temperature Mud Cake
FTYP.             0           :Fluid Type
FD  .K/M3                     :Fluid Density
DFV .S                        :Fluid Viscosity
FPH .                         :Fuild PH
ELCO.        2500             :Electron Cutoff
~Other Information
#MNEM.UNIT  Information      Description
#---------- ---------------  ------------------------
# --------------------------
#<------------------LOG DATA-------------------
#DEPT	GAM(NAT)	SP	RES(16N)	RES(64N)	RES	LATERAL
#FT	API-GR	MV	OHM-M	OHM-M	OHM	OHM-M
~A DEPTH  GAM(NAT) SP    RES(16N) RES(64N) RES      LATERAL  
# ...
841.100	67.1	46.6	15.2	17.2	21.1	25014.5
841.200	66.1	46.7	15.1	17.2	21.1	25014.4
841.300	64.3	46.8	15.3	17.3	21.1	25014.6
841.400	62.9	46.7	15.0	17.1	21.2	25014.3
841.500	58.7	46.8	15.2	17.2	21.2	25014.5
841.600	59.2	46.7	15.1	17.4	21.3	25014.3
841.700	56.9	46.5	14.9	17.3	21.4	25014.1
841.800	57.8	46.3	14.8	17.3	21.4	25014.0
841.900	56.0	46.3	14.8	17.4	21.4	25013.9
842.000	57.4	46.0	14.9	17.4	21.3	25014.1
842.100	53.2	46.1	14.8	17.4	21.2	25013.9
842.200	54.1	46.2	14.8	17.4	21.1	25013.9
842.300	54.6	46.2	14.8	17.6	21.0	25013.9
842.400	56.9	46.0	14.8	17.2	20.9	25014.0
842.500	56.4	46.0	14.9	17.6	20.7	25014.0
842.600	57.4	46.4	14.9	17.7	20.7	25014.0
842.700	60.6	46.5	15.0	17.6	20.7	25014.1
842.800	66.1	46.4	15.1	17.9	20.8	25014.2
842.900	65.7	46.3	15.0	17.8	20.7	25014.1
843.000	63.8	46.3	15.0	18.0	20.6	25014.0
843.100	63.8	46.2	15.1	18.0	20.7	25014.1
843.200	64.3	46.0	15.1	17.9	20.8	25014.2
843.300	60.6	46.2	15.1	18.1	20.8	25014.1
843.400	64.3	45.9	15.1	18.2	20.8	25014.1
843.500	67.1	46.0	15.2	18.0	20.8	25014.3
843.600	68.0	46.2	15.2	18.2	20.8	25014.2
843.700	68.5	46.2	15.2	18.2	20.9	25014.2
843.800	65.2	46.0	15.2	18.3	21.0	25014.2
843.900	58.7	46.1	15.2	18.3	21.0	25014.2
844.000	58.3	46.1	15.3	18.2	21.1	25014.3
844.100	59.2	45.9	15.2	18.5	21.1	25014.1
844.200	57.8	45.8	15.2	18.5	21.0	25014.1
844.300	57.8	45.7	15.3	18.3	21.2	25014.3
844.400	58.7	45.8	15.3	18.4	21.1	25014.3
844.500	54.6	45.8	15.3	18.5	21.0	25014.2
844.600	48.1	45.9	15.4	18.5	21.0	25014.4
844.700	47.2	45.9	15.4	18.6	20.9	25014.3
844.800	45.8	45.8	15.5	18.5	20.9	25014.5
844.900	44.4	45.5	15.6	18.4	21.0	25014.7
845.000	46.3	45.5	15.5	18.3	21.0	25014.6
845.100	50.9	45.3	15.6	18.4	20.9	25014.7
845.200	50.4	45.3	15.6	18.5	20.9	25014.6
845.300	52.7	45.0	15.7	18.5	20.8	25014.8
845.400	52.7	44.8	15.8	18.4	21.1	25014.9
845.500	52.3	44.8	15.8	18.5	21.1	25014.9
845.600	53.2	44.5	15.8	18.7	21.2	25014.8
845.700	57.8	44.0	15.9	18.7	21.4	25015.0
845.800	57.8	43.8	16.0	18.7	21.5	25015.1
845.900	57.4	43.8	15.9	18.7	21.4	25015.0
846.000	58.7	43.8	16.0	18.6	21.5	25015.1
846.100	59.2	43.5	16.0	18.8	21.6	25015.1
846.200	59.2	43.6	15.9	18.9	21.5	25014.9
846.300	61.1	43.5	15.9	18.9	21.5	25014.9
846.400	57.4	43.4	15.9	19.2	21.6	25014.8
846.500	59.2	43.5	15.9	19.1	21.7	25014.8
846.600	59.7	43.3	15.8	19.2	22.0	25014.7
846.700	58.3	43.0	16.0	19.3	22.0	25014.9
846.800	53.2	43.1	15.9	19.3	21.9	25014.8
846.900	55.0	43.3	15.9	19.4	21.7	25014.7
847.000	53.2	43.4	16.0	19.4	21.4	25014.9
847.100	53.2	43.7	15.9	19.5	21.5	25014.7
847.200	51.8	44.0	15.9	19.8	21.5	25014.6
847.300	47.2	44.0	16.0	19.6	21.6	25014.8
847.400	47.2	43.6	15.8	20.0	21.4	25014.4
847.500	50.4	43.7	16.0	19.8	21.6	25014.7
847.600	46.3	44.0	15.9	19.8	21.4	25014.6
847.700	45.8	44.2	15.9	20.0	21.6	25014.5
847.800	48.1	44.5	15.9	19.9	21.6	25014.6
847.900	52.3	44.7	15.9	20.0	21.5	25014.5
848.000	54.1	44.9	15.6	20.0	21.4	25014.1
848.100	56.9	45.0	15.7	20.0	21.4	25014.3
848.200	56.9	44.8	15.7	20.2	21.5	25014.2
848.300	56.0	44.5	15.7	20.1	21.5	25014.2
848.400	59.7	44.0	15.7	20.4	21.5	25014.1
848.500	59.7	43.7	15.7	20.6	21.5	25014.1
848.600	59.2	43.8	15.8	20.4	21.6	25014.3
848.700	64.8	44.2	15.8	20.3	21.6	25014.3
848.800	64.8	44.5	15.8	20.5	21.6	25014.2
848.900	59.7	44.5	15.9	20.8	21.6	25014.3
849.000	59.7	44.8	15.9	21.0	21.5	25014.2
849.100	58.7	44.8	15.9	20.9	21.6	25014.2
849.200	57.8	44.8	16.0	21.0	21.5	25014.3
849.300	57.4	44.7	16.0	21.1	21.6	25014.3
849.400	59.7	44.3	15.9	21.1	21.7	25014.2
849.500	61.5	44.0	16.0	21.3	21.7	25014.2
849.600	61.5	44.0	15.9	21.2	21.7	25014.1
849.700	60.1	44.0	16.0	21.4	21.7	25014.2
849.800	57.8	44.1	15.9	21.5	21.7	25014.0
849.900	57.4	44.0	16.1	21.5	21.6	25014.3
850.000	62.9	44.1	16.2	21.8	21.7	25014.3
850.100	58.3	43.8	16.3	21.6	21.7	25014.5
850.200	57.8	43.5	16.6	21.6	21.7	25014.9
850.300	57.4	43.5	16.5	21.6	21.9	25014.8
850.400	57.8	43.6	16.6	21.8	21.8	25014.9
850.500	57.8	43.7	16.8	21.9	21.9	25015.1
850.600	50.4	43.8	16.8	21.8	22.0	25015.1
850.700	47.6	43.7	16.8	21.6	22.1	25015.2
850.800	51.3	43.0	17.0	21.8	22.1	25015.4
850.900	49.5	42.4	17.2	21.6	22.2	25015.7
851.000	49.5	41.8	17.2	21.8	22.4	25015.7
851.100	46.7	41.7	17.3	21.9	22.4	25015.8
851.200	50.9	41.7	17.4	21.8	22.5	25015.9
851.300	48.6	42.2	17.5	21.7	22.5	25016.1
851.400	49.5	42.6	17.9	21.8	22.6	25016.6
851.500	53.7	43.0	18.2	21.9	22.6	25017.0
851.600	56.0	43.3	18.2	22.1	22.6	25016.9
851.700	61.5	43.3	18.4	22.1	22.6	25017.2
851.800	64.3	43.2	18.5	22.1	22.6	25017.3
851.900	60.6	43.2	18.6	21.8	22.7	25017.5
852.000	65.7	43.1	18.7	22.0	22.8	25017.6
852.100	66.6	43.2	18.8	22.1	22.7	25017.7
852.200	69.8	43.2	18.8	22.2	22.7	25017.7
852.300	72.2	43.5	19.1	22.4	22.6	25018.0
852.400	74.9	43.7	19.4	22.2	22.6	25018.5
852.500	75.4	44.0	19.6	22.2	22.4	25018.7
852.600	72.2	44.0	19.8	22.4	22.4	25018.9
852.700	70.3	44.0	20.2	22.3	22.5	25019.5
852.800	68.5	44.0	20.1	22.3	22.7	25019.4
852.900	68.0	44.1	20.3	22.6	23.2	25019.5
853.000	68.9	43.9	20.8	22.5	23.7	25020.2
853.100	65.2	43.5	21.3	22.6	24.2	25020.9
853.200	65.7	43.0	21.6	22.5	24.5	25021.3
853.300	65.2	42.8	21.7	22.6	24.5	25021.4
853.400	64.8	42.8	22.1	22.5	24.4	25022.0
853.500	62.0	42.8	22.8	22.6	24.4	25022.9
853.600	59.7	42.8	23.3	22.7	24.2	25023.5
853.700	59.2	42.8	24.0	22.8	24.2	25024.4
853.800	59.7	42.8	24.7	23.0	24.2	25025.3
853.900	59.7	43.0	25.2	23.1	24.2	25025.9
854.000	61.1	43.2	25.8	23.1	24.4	25026.7
854.100	59.7	44.8	26.5	23.4	24.4	25027.5
854.200	57.4	43.3	27.2	23.7	24.6	25028.4
854.300	59.7	43.3	28.0	23.8	24.5	25029.4
854.400	56.9	43.5	28.2	23.8	24.8	25029.7
854.500	53.2	43.8	28.8	23.9	25.0	25030.4
854.600	56.0	43.7	29.2	24.0	25.4	25030.9
854.700	60.1	43.7	29.8	24.2	25.7	25031.7
854.800	63.4	43.8	30.0	24.5	26.6	25031.8
854.900	64.8	43.6	30.4	24.8	27.5	25032.3
855.000	68.0	43.3	30.9	25.2	28.5	25032.8
855.100	68.9	43.5	31.2	25.7	29.1	25033.0
855.200	72.6	43.5	31.7	26.4	29.6	25033.5
855.300	76.3	43.4	32.1	26.8	30.3	25033.9
855.400	74.5	43.1	33.0	27.2	31.2	25034.9
855.500	76.8	43.2	34.0	27.3	31.7	25036.2
855.600	78.6	43.2	35.2	27.9	31.9	25037.6
855.700	75.4	43.5	36.2	28.6	31.8	25038.7
855.800	72.2	43.7	37.1	29.2	31.8	25039.7
855.900	68.0	43.8	38.4	30.0	31.8	25041.2
856.000	63.4	44.1	39.9	30.6	31.7	25043.0
856.100	59.2	44.3	41.3	31.2	31.4	25044.7
856.200	54.6	44.7	42.3	31.9	30.9	25045.8
856.300	53.2	45.1	43.2	32.3	30.8	25046.8
856.400	53.2	45.3	44.0	33.1	30.6	25047.6
856.500	49.0	45.5	44.7	33.9	30.6	25048.3
856.600	43.9	45.8	45.5	34.2	30.5	25049.3
856.700	41.6	46.0	46.3	34.4	30.5	25050.3
856.800	43.9	46.2	46.4	35.0	30.5	25050.2
856.900	43.5	46.3	46.4	35.4	30.4	25050.1
857.000	47.2	46.6	46.7	35.9	30.6	25050.3
857.100	47.2	46.7	47.1	36.4	30.4	25050.7
857.200	46.7	46.9	47.3	37.0	30.6	25050.7
857.300	49.5	46.9	47.4	37.7	30.7	25050.6
857.400	49.0	47.0	47.6	38.4	30.8	25050.7
857.500	45.8	47.0	47.5	39.0	30.7	25050.3
857.600	44.4	47.1	47.4	39.7	30.8	25050.0
857.700	47.6	47.2	47.3	40.7	30.7	25049.5
857.800	45.8	47.0	47.1	41.5	30.9	25049.0
857.900	46.7	47.0	47.1	42.4	31.1	25048.7
858.000	46.7	46.8	47.0	43.2	31.3	25048.3
858.100	40.2	46.5	47.0	43.9	31.4	25048.0
858.200	43.0	46.3	46.9	44.9	31.6	25047.6
858.300	44.9	46.2	46.9	45.8	31.6	25047.3
858.400	44.9	46.2	46.9	46.4	31.8	25047.1
858.500	43.9	46.0	46.8	46.9	31.6	25046.8
858.600	42.6	46.1	46.6	47.0	31.5	25046.5
858.700	45.8	46.1	46.8	47.8	31.5	25046.5
858.800	43.9	46.1	46.9	48.1	31.6	25046.5
858.900	46.7	45.7	47.0	48.2	31.8	25046.6
859.000	47.2	45.3	47.1	48.4	32.0	25046.7
859.100	45.3	44.8	47.2	48.6	32.1	25046.7
859.200	46.7	44.6	47.3	48.8	32.1	25046.8
859.300	43.0	44.3	47.3	48.6	32.1	25046.9
859.400	44.4	44.2	47.2	48.6	31.9	25046.7
859.500	45.3	44.0	47.0	48.6	31.9	25046.5
859.600	49.5	44.0	46.9	48.6	32.0	25046.3
859.700	52.3	44.0	46.7	48.4	31.9	25046.1
859.800	50.4	44.0	46.4	48.3	31.8	25045.8
859.900	50.4	44.0	46.4	48.2	31.8	25045.8
860.000	49.5	44.2	46.4	48.1	31.8	25045.8
860.100	46.7	44.3	46.1	48.2	31.8	25045.4
860.200	49.5	44.3	45.6	48.4	32.0	25044.7
860.300	50.4	44.3	45.1	47.9	32.1	25044.2
860.400	56.0	44.2	44.6	47.7	32.2	25043.6
860.500	52.7	44.2	44.2	47.5	32.2	25043.1
860.600	52.7	44.3	44.0	47.0	32.1	25043.0
