~Version Information
VERS.                2.0:  CWLS LOG ASCII STANDARD -VERSION 2.0
~WELL INFORMATION BLOCK
#MNEM.UNIT       DATA		            DESCRIPTION OF MNEMONIC
#---------    -------------            ------------------------
STRT.FT  1.200                          :START DEPTH
STOP.FT  1599.200                       :STOP DEPTH
STEP.FT  0.100                          :STEP    UP_HOLE
NULL.    -999.25                        :NULL VALUE
COMP.                             MDGS  :COMPANY
WELL.                           SMBC39  :WELL
FLD .                      Persimmon H  :FIELD
LOC .    None  None  None               :LOCATION
CNTY.                       St. Mary's  :COUNTY
STAT.                    Md.            :STATE
SRVC.           None                    :SERVICE COMPANY
DATE.   03/11/02                        :LOG DATE
UWI .                       	         :UNIQUE WELL ID
LIC .                                   :LICENSE NUMBER
~Curve Information Block
#MNEM.UNIT      API CODE     Curve Description
#---------    -------------  ------------------------
DEPT     .FT        00 001 00 00          :  1  DEPTH
GAM(NAT) .API-GR    00 310 00 00          :  2             GAM(NAT)
SP       .MV        00 010 00 00          :  3                   SP
RES(16N) .OHM-M     00 040 00 00          :  4             RES(16N)
RES(64N) .OHM-M     00 060 00 00          :  5             RES(64N)
RES      .OHM       00 000 00 00          :  6                  RES
LATERAL  .OHM-M     00 070 00 00          :  7              LATERAL
~Parameter Information Block
#MNEM.UNIT   Information     Description
#---------- ---------------  ------------------------
FILE.      ORIGINAL           :File Type
FIID.      8044A              :File Type Identifier
VERS.      1.0                :System Version
SER .      1                  :System Serial Number
TRUK.      0.0                :Truck Calibration Number
TOOL.         904             :Tool Serial Number
TIME.      1205               :Time    HrHrMinMin
LAT .          None           :Latitude
LON .          None           :Longitude
LMF .       Grnd. L           :Log Measured From
DMF .       Grnd. L           :Driller Measured From
PD  .          None           :Permanent Data
PDEV.          None           :Elevation Permanent Data
EKB .M         None           :Elevation Kelly Bushing
ELEV.DF        None           :Elevation DF
EGL .M         None           :Elevation Ground Level
DRDP.          1600           :Driller's Depth
CASD.        12               :Casing Diameter
CASB.            40           :Casing Bottom
CASX.         Steel           :Casing Type
CAST.         0               :Casing Thickness
TNOC.          None           :Time Circulation Stopped
LOGU.       None              :Logging Unit
RECB.        A. McThena       :Recorded By
OSR1.          None           :Other Services
OSR2.          None           :Other Services
OSR3.          None           :Other Services
BS  .MM          11           :Bit Size
MST .                         :Mean Surface Temperature
TGRD.        0                :Temperature Gradiant
MAGN.             0           :Magnetic Declination
MDEN.      2.71               :Density Matrix
MATR.       Dolomite          :Neutron Matrix
DTMT.            54           :Delta T Matrix
DTFL.                         :Delta T Fluid
MUDS.               0         :Mud Sample Source
MRS .           0             :Mud Resistivity
MTP .           0             :Mud Temperature
MFRS.                         :Resistivity Mud Filtrate
MFTP.                         :Temperature Mud Filtrate
MCRS.         0               :Resistivity Mud Cake
MCTP.                         :Temperature Mud Cake
FTYP.             0           :Fluid Type
FD  .K/M3                     :Fluid Density
DFV .S                        :Fluid Viscosity
FPH .                         :Fuild PH
ELCO.        2500             :Electron Cutoff
~Other Information
#MNEM.UNIT  Information      Description
#---------- ---------------  ------------------------
# --------------------------
#<------------------LOG DATA-------------------
#DEPT	GAM(NAT)	SP	RES(16N)	RES(64N)	RES	LATERAL
#FT	API-GR	MV	OHM-M	OHM-M	OHM	OHM-M
~A DEPTH  GAM(NAT) SP    RES(16N) RES(64N) RES      LATERAL  
# ...
1481.300	50.4	21.4	12.5	12.5	20.8	25012.5
1481.400	56.0	19.9	12.7	12.7	20.8	25012.7
1481.500	55.5	19.6	12.8	12.7	20.7	25012.8
1481.600	57.4	19.3	13.0	12.8	20.6	25013.1
1481.700	59.7	18.9	13.0	12.9	20.6	25013.0
1481.800	61.5	18.5	13.0	12.6	20.5	25013.1
1481.900	66.1	17.8	13.1	12.6	20.4	25013.3
1482.000	68.0	17.4	13.0	12.8	20.3	25013.1
1482.100	70.3	17.4	13.2	12.7	20.2	25013.4
1482.200	74.9	16.9	13.2	12.8	20.3	25013.3
1482.300	75.4	16.0	13.4	13.1	20.3	25013.5
1482.400	77.7	15.1	13.7	13.2	20.4	25013.9
1482.500	74.0	15.4	13.7	13.3	20.6	25013.8
1482.600	73.5	13.8	13.9	13.4	20.6	25014.1
1482.700	76.3	11.8	14.0	13.6	20.8	25014.1
1482.800	79.1	11.4	14.1	13.6	20.7	25014.3
1482.900	76.3	10.4	14.4	13.8	20.9	25014.6
1483.000	76.8	9.1	14.3	13.7	20.9	25014.5
1483.100	77.2	8.4	14.4	13.9	21.1	25014.6
1483.200	71.7	7.9	14.6	14.0	21.3	25014.8
1483.300	68.9	7.3	15.0	14.3	21.5	25015.2
1483.400	68.0	6.8	15.1	14.3	21.8	25015.4
1483.500	67.5	6.4	15.4	14.3	22.0	25015.8
1483.600	65.2	6.1	15.6	14.6	22.2	25015.9
1483.700	62.4	6.1	15.6	15.0	22.2	25015.8
1483.800	61.5	6.1	15.7	14.9	22.2	25016.0
1483.900	54.6	5.5	15.8	15.1	22.5	25016.0
1484.000	57.8	4.5	16.1	15.2	22.8	25016.4
1484.100	52.7	4.6	16.3	15.3	23.0	25016.6
1484.200	53.7	4.7	16.5	15.5	23.2	25016.8
1484.300	55.5	4.4	16.7	15.9	23.5	25017.0
1484.400	56.0	4.6	17.0	16.0	23.7	25017.3
1484.500	55.0	4.8	17.1	16.2	23.8	25017.4
1484.600	55.5	5.0	17.1	16.2	24.2	25017.4
1484.700	57.4	5.4	17.4	16.5	24.2	25017.7
1484.800	56.9	6.3	17.7	16.4	24.2	25018.1
1484.900	53.2	6.6	18.0	16.7	24.4	25018.4
1485.000	56.0	6.2	18.3	16.8	24.2	25018.8
1485.100	55.0	6.5	18.4	16.9	24.3	25018.9
1485.200	59.2	6.8	18.7	17.0	24.3	25019.3
1485.300	55.0	7.9	19.2	17.3	24.1	25019.8
1485.400	55.5	7.8	19.4	17.3	24.1	25020.1
1485.500	53.2	6.3	19.8	17.5	23.9	25020.6
1485.600	54.1	5.5	19.8	17.6	24.0	25020.5
1485.700	52.7	4.7	20.0	17.7	23.8	25020.8
1485.800	53.2	4.1	20.2	17.8	24.1	25021.0
1485.900	55.5	5.2	20.5	18.2	24.2	25021.3
1486.000	62.4	5.3	20.8	18.3	24.5	25021.6
1486.100	62.9	5.3	21.1	18.5	24.8	25022.0
1486.200	59.7	4.5	21.3	18.8	25.1	25022.1
1486.300	56.4	4.2	21.4	19.1	25.3	25022.2
1486.400	58.7	3.7	21.5	19.0	25.2	25022.3
1486.500	59.7	3.0	21.9	19.2	25.3	25022.8
1486.600	61.5	2.8	22.2	19.6	25.4	25023.1
1486.700	60.6	2.7	22.5	20.1	25.6	25023.3
1486.800	63.8	1.8	22.8	20.1	25.8	25023.7
1486.900	65.2	1.1	23.1	20.5	26.0	25024.0
1487.000	62.9	0.9	23.5	20.9	26.3	25024.4
1487.100	57.4	0.9	23.9	21.2	26.4	25024.8
1487.200	56.4	0.6	24.4	21.8	26.7	25025.3
1487.300	58.3	0.2	24.5	21.9	26.8	25025.4
1487.400	60.1	0.0	25.1	21.8	26.8	25026.2
1487.500	60.6	-0.2	25.5	22.2	27.0	25026.6
1487.600	61.1	-0.1	26.0	22.6	27.0	25027.1
1487.700	60.6	-0.3	26.2	22.9	27.2	25027.3
1487.800	60.6	-0.6	26.4	23.1	27.2	25027.5
1487.900	58.3	-0.9	27.1	23.5	27.3	25028.3
1488.000	54.1	-1.1	27.5	23.9	27.1	25028.7
1488.100	54.6	-1.6	27.7	24.0	27.2	25028.9
1488.200	52.7	-2.8	28.1	24.1	27.1	25029.4
1488.300	55.5	-3.7	28.6	24.4	27.4	25030.0
1488.400	54.6	-3.8	28.8	24.4	27.4	25030.3
1488.500	53.7	-4.3	29.1	24.9	27.6	25030.5
1488.600	51.3	-4.4	29.5	25.2	27.7	25030.9
1488.700	49.0	-4.3	29.6	25.3	28.0	25031.0
1488.800	50.4	-5.1	30.1	25.3	27.9	25031.7
1488.900	50.4	-5.6	30.6	25.9	27.9	25032.2
1489.000	48.1	-5.8	31.1	26.2	27.9	25032.7
1489.100	50.9	-6.3	31.4	26.4	28.0	25033.1
1489.200	50.4	-5.5	32.0	26.8	27.8	25033.7
1489.300	52.3	-5.0	32.2	27.1	27.8	25033.9
1489.400	48.6	-4.6	32.8	27.3	27.8	25034.6
1489.500	49.5	-0.9	33.2	27.7	27.9	25035.0
1489.600	52.3	0.2	33.3	28.2	28.2	25035.0
1489.700	52.3	0.3	33.8	28.4	28.6	25035.6
1489.800	50.9	0.1	34.2	28.7	28.8	25036.0
1489.900	50.4	-0.3	34.5	29.2	28.8	25036.3
1490.000	51.3	-1.1	34.8	29.8	29.1	25036.5
1490.100	55.0	-0.6	35.1	29.8	29.4	25036.9
1490.200	52.3	-1.6	35.2	30.2	29.5	25036.9
1490.300	50.0	-2.0	35.2	30.6	29.8	25036.7
1490.400	48.6	-2.2	35.3	31.0	30.1	25036.7
1490.500	50.4	-3.0	35.6	31.5	30.2	25037.0
1490.600	50.0	-3.0	36.0	32.1	30.6	25037.3
1490.700	44.4	-3.0	36.1	32.4	30.6	25037.3
1490.800	45.8	-3.5	36.5	32.7	30.8	25037.8
1490.900	49.5	-3.7	36.7	32.8	30.9	25038.0
1491.000	48.6	-3.9	37.1	33.3	30.8	25038.4
1491.100	46.7	-3.9	37.2	33.4	30.8	25038.5
1491.200	48.1	-4.2	37.2	33.9	30.7	25038.3
1491.300	50.0	-4.5	37.4	34.5	30.6	25038.4
1491.400	50.9	-5.3	37.7	34.7	30.6	25038.7
1491.500	51.3	-5.7	38.1	35.0	30.4	25039.1
1491.600	54.1	-6.3	38.2	35.8	30.3	25039.0
1491.700	53.7	-7.3	38.5	36.1	30.2	25039.3
1491.800	53.7	-7.6	38.6	36.2	29.9	25039.4
1491.900	54.1	-7.8	38.9	36.6	29.8	25039.7
1492.000	53.2	-7.3	39.0	37.2	29.7	25039.6
1492.100	54.1	-8.1	39.0	37.6	29.8	25039.5
1492.200	55.5	-8.5	39.2	37.9	30.0	25039.6
1492.300	52.3	-9.4	39.3	38.3	30.1	25039.6
1492.400	51.3	-10.1	39.2	38.7	30.2	25039.4
1492.500	51.8	-11.1	39.3	39.0	30.3	25039.4
1492.600	49.5	-11.4	39.2	39.7	30.4	25039.0
1492.700	43.9	-12.6	39.3	39.9	30.6	25039.1
1492.800	43.0	-12.7	39.3	40.4	30.6	25038.9
1492.900	44.9	-13.4	39.2	40.9	30.8	25038.6
1493.000	43.9	-13.5	39.2	41.3	30.9	25038.5
1493.100	44.9	-14.3	39.3	41.5	30.9	25038.6
1493.200	45.8	-14.6	39.5	42.0	31.0	25038.7
1493.300	48.6	-14.9	39.7	43.0	31.1	25038.6
1493.400	50.9	-16.0	39.9	43.2	31.2	25038.8
1493.500	54.1	-15.8	40.3	43.4	31.2	25039.3
1493.600	59.7	-16.1	40.6	43.7	31.0	25039.6
1493.700	63.8	-17.0	40.9	44.0	31.1	25039.9
1493.800	68.0	-17.5	41.3	44.2	31.0	25040.3
1493.900	72.2	-17.7	41.4	44.5	31.0	25040.4
1494.000	75.4	-18.1	41.5	44.9	31.0	25040.4
1494.100	80.0	-18.0	41.6	45.0	30.9	25040.5
1494.200	80.0	-18.6	42.0	45.6	31.0	25040.8
1494.300	78.6	-18.5	42.5	45.9	30.9	25041.4
1494.400	79.1	-18.5	42.7	46.1	31.1	25041.6
1494.500	80.9	-19.0	42.9	46.3	31.2	25041.8
1494.600	80.9	-19.4	43.1	46.7	31.2	25041.9
1494.700	76.3	-19.7	43.5	46.4	31.5	25042.5
1494.800	75.4	-19.4	43.6	46.6	31.6	25042.6
1494.900	74.0	-19.9	43.7	46.6	31.8	25042.7
1495.000	71.2	-20.1	43.9	46.7	32.0	25043.0
1495.100	68.5	-20.1	44.2	46.8	32.2	25043.3
1495.200	66.1	-20.8	44.5	46.8	32.5	25043.7
1495.300	66.1	-20.5	44.9	47.1	32.7	25044.2
1495.400	67.5	-21.0	45.1	47.0	32.7	25044.5
1495.500	67.1	-21.0	45.5	47.0	32.8	25045.0
1495.600	62.9	-20.9	45.9	47.4	32.8	25045.4
1495.700	62.9	-21.1	46.0	47.1	32.7	25045.6
1495.800	63.8	-21.4	46.0	46.8	32.8	25045.7
1495.900	65.7	-22.0	46.1	46.8	32.8	25045.9
1496.000	65.7	-22.1	46.3	47.2	32.9	25046.0
1496.100	64.3	-22.6	46.8	47.0	32.9	25046.7
1496.200	64.8	-23.4	47.1	47.0	33.0	25047.1
1496.300	62.0	-23.6	47.2	47.0	33.0	25047.3
1496.400	62.9	-23.9	47.4	46.8	33.0	25047.6
1496.500	63.4	-24.1	47.6	46.8	32.9	25047.9
1496.600	66.1	-24.4	47.7	46.9	32.8	25048.0
1496.700	69.4	-25.0	47.6	47.0	32.9	25047.8
1496.800	70.3	-25.4	47.6	46.7	33.0	25047.9
1496.900	65.7	-25.8	47.6	47.0	33.1	25047.8
1497.000	64.3	-26.0	47.5	47.1	33.2	25047.6
1497.100	63.8	-26.1	47.5	47.0	33.3	25047.7
1497.200	71.2	-27.0	47.5	47.3	33.5	25047.6
1497.300	69.8	-27.8	47.3	47.4	33.5	25047.3
1497.400	72.2	-28.4	47.2	47.3	33.7	25047.2
1497.500	69.4	-29.0	47.2	47.3	33.6	25047.2
1497.600	66.6	-29.3	47.2	47.4	33.5	25047.1
1497.700	62.9	-29.8	47.1	47.4	33.4	25047.0
1497.800	58.7	-30.5	46.9	47.1	33.4	25046.8
1497.900	55.5	-31.2	46.7	47.1	33.3	25046.6
1498.000	60.1	-30.6	46.6	47.1	33.5	25046.4
1498.100	63.4	-31.4	46.3	47.0	33.4	25046.1
1498.200	64.3	-32.1	46.1	47.0	33.5	25045.8
1498.300	57.8	-33.3	46.0	47.1	33.4	25045.6
1498.400	63.4	-33.3	46.0	47.0	33.4	25045.7
1498.500	64.8	-33.5	45.8	47.1	33.3	25045.4
1498.600	67.1	-34.0	45.6	47.0	33.2	25045.1
1498.700	71.7	-34.2	45.3	46.5	33.1	25044.9
1498.800	70.8	-33.7	44.9	45.8	33.0	25044.6
1498.900	72.6	-33.3	44.6	45.8	32.7	25044.2
1499.000	74.9	-32.3	44.4	45.5	32.3	25044.0
1499.100	74.9	-32.9	44.0	45.1	32.0	25043.6
1499.200	73.1	-33.1	43.8	44.9	32.0	25043.4
1499.300	71.7	-33.5	43.6	44.7	31.8	25043.2
1499.400	73.5	-34.1	43.5	44.4	31.8	25043.2
1499.500	68.9	-34.5	43.2	44.2	31.9	25042.9
1499.600	69.4	-35.3	43.0	44.2	31.5	25042.6
1499.700	66.6	-35.3	42.6	44.0	31.5	25042.1
1499.800	63.8	-35.0	42.3	43.6	31.8	25041.9
1499.900	60.6	-35.8	42.1	43.7	32.2	25041.6
1500.000	63.4	-36.0	41.5	43.5	32.4	25040.8
1500.100	61.5	-35.5	41.5	43.3	32.3	25040.9
1500.200	65.7	-36.3	41.4	43.3	32.4	25040.8
