~Version Information
VERS.                2.0:  CWLS LOG ASCII STANDARD -VERSION 2.0
~WELL INFORMATION BLOCK
#MNEM.UNIT       DATA		            DESCRIPTION OF MNEMONIC
#---------    -------------            ------------------------
STRT.FT  1.200                          :START DEPTH
STOP.FT  1599.200                       :STOP DEPTH
STEP.FT  0.100                          :STEP    UP_HOLE
NULL.    -999.25                        :NULL VALUE
COMP.                             MDGS  :COMPANY
WELL.                           SMBC39  :WELL
FLD .                      Persimmon H  :FIELD
LOC .    None  None  None               :LOCATION
CNTY.                       St. Mary's  :COUNTY
STAT.                    Md.            :STATE
SRVC.           None                    :SERVICE COMPANY
DATE.   03/11/02                        :LOG DATE
UWI .                       	         :UNIQUE WELL ID
LIC .                                   :LICENSE NUMBER
~Curve Information Block
#MNEM.UNIT      API CODE     Curve Description
#---------    -------------  ------------------------
DEPT     .FT        00 001 00 00          :  1  DEPTH
GAM(NAT) .API-GR    00 310 00 00          :  2             GAM(NAT)
SP       .MV        00 010 00 00          :  3                   SP
RES(16N) .OHM-M     00 040 00 00          :  4             RES(16N)
RES(64N) .OHM-M     00 060 00 00          :  5             RES(64N)
RES      .OHM       00 000 00 00          :  6                  RES
LATERAL  .OHM-M     00 070 00 00          :  7              LATERAL
~Parameter Information Block
#MNEM.UNIT   Information     Description
#---------- ---------------  ------------------------
FILE.      ORIGINAL           :File Type
FIID.      8044A              :File Type Identifier
VERS.      1.0                :System Version
SER .      1                  :System Serial Number
TRUK.      0.0                :Truck Calibration Number
TOOL.         904             :Tool Serial Number
TIME.      1205               :Time    HrHrMinMin
LAT .          None           :Latitude
LON .          None           :Longitude
LMF .       Grnd. L           :Log Measured From
DMF .       Grnd. L           :Driller Measured From
PD  .          None           :Permanent Data
PDEV.          None           :Elevation Permanent Data
EKB .M         None           :Elevation Kelly Bushing
ELEV.DF        None           :Elevation DF
EGL .M         None           :Elevation Ground Level
DRDP.          1600           :Driller's Depth
CASD.        12               :Casing Diameter
CASB.            40           :Casing Bottom
CASX.         Steel           :Casing Type
CAST.         0               :Casing Thickness
TNOC.          None           :Time Circulation Stopped
LOGU.       None              :Logging Unit
RECB.        A. McThena       :Recorded By
OSR1.          None           :Other Services
OSR2.          None           :Other Services
OSR3.          None           :Other Services
BS  .MM          11           :Bit Size
MST .                         :Mean Surface Temperature
TGRD.        0                :Temperature Gradiant
MAGN.             0           :Magnetic Declination
MDEN.      2.71               :Density Matrix
MATR.       Dolomite          :Neutron Matrix
DTMT.            54           :Delta T Matrix
DTFL.                         :Delta T Fluid
MUDS.               0         :Mud Sample Source
MRS .           0             :Mud Resistivity
MTP .           0             :Mud Temperature
MFRS.                         :Resistivity Mud Filtrate
MFTP.                         :Temperature Mud Filtrate
MCRS.         0               :Resistivity Mud Cake
MCTP.                         :Temperature Mud Cake
FTYP.             0           :Fluid Type
FD  .K/M3                     :Fluid Density
DFV .S                        :Fluid Viscosity
FPH .                         :Fuild PH
ELCO.        2500             :Electron Cutoff
~Other Information
#MNEM.UNIT  Information      Description
#---------- ---------------  ------------------------
# --------------------------
#<------------------LOG DATA-------------------
#DEPT	GAM(NAT)	SP	RES(16N)	RES(64N)	RES	LATERAL
#FT	API-GR	MV	OHM-M	OHM-M	OHM	OHM-M
~A DEPTH  GAM(NAT) SP    RES(16N) RES(64N) RES      LATERAL  
# ...
312.900	84.2	97.2	17.5	22.7	21.8	25015.8
313.000	83.7	97.1	17.6	22.4	21.9	25016.0
313.100	86.0	96.8	17.8	22.6	21.9	25016.2
313.200	88.8	96.7	17.9	22.6	21.8	25016.3
313.300	89.3	96.4	17.9	22.6	21.9	25016.3
313.400	89.3	96.3	18.1	22.7	21.8	25016.6
313.500	88.8	96.2	18.1	22.6	21.8	25016.6
313.600	88.8	96.2	18.3	22.5	21.8	25016.9
313.700	88.3	96.1	18.4	22.5	21.7	25017.0
313.800	87.9	95.8	18.5	22.4	21.8	25017.2
313.900	89.3	95.7	18.6	22.5	21.7	25017.3
314.000	88.3	95.7	18.6	22.3	21.8	25017.4
314.100	91.1	95.8	18.7	22.4	21.7	25017.5
314.200	88.8	95.8	18.6	22.2	21.7	25017.4
314.300	83.7	95.8	18.6	22.2	21.6	25017.4
314.400	82.8	95.8	18.7	22.2	21.7	25017.5
314.500	79.1	95.9	18.7	22.1	21.7	25017.6
314.600	81.4	95.8	18.7	22.1	21.8	25017.6
314.700	75.4	95.8	18.7	22.3	21.9	25017.5
314.800	71.7	95.8	18.7	22.0	21.9	25017.6
314.900	72.6	95.8	18.7	22.3	21.9	25017.5
315.000	72.6	95.7	18.7	21.8	21.8	25017.7
315.100	74.9	95.8	18.6	21.8	21.9	25017.5
315.200	69.8	95.7	18.7	21.9	21.9	25017.6
315.300	72.6	95.6	18.6	21.8	22.1	25017.5
315.400	74.0	95.6	18.7	22.2	22.1	25017.5
315.500	73.5	95.5	18.6	21.8	22.2	25017.5
315.600	74.9	95.4	18.5	21.9	22.1	25017.4
315.700	74.9	95.3	18.4	21.9	22.1	25017.2
315.800	80.9	95.2	18.3	21.9	22.2	25017.1
315.900	84.2	95.2	18.2	22.0	22.2	25016.9
316.000	81.4	95.2	18.1	21.8	22.2	25016.9
316.100	84.2	95.2	18.1	21.9	22.1	25016.8
316.200	82.8	95.3	18.0	22.1	22.0	25016.6
316.300	85.6	95.4	17.9	22.1	22.1	25016.5
316.400	85.1	95.6	17.8	22.0	22.1	25016.4
316.500	83.3	95.7	17.6	22.1	22.0	25016.1
316.600	82.3	95.7	17.4	22.2	21.9	25015.8
316.700	82.3	95.7	17.4	22.0	21.7	25015.9
316.800	80.0	95.8	17.4	22.1	21.6	25015.8
316.900	78.2	95.8	17.3	22.1	21.5	25015.7
317.000	76.8	95.9	17.2	21.9	21.4	25015.6
317.100	77.7	96.2	17.1	22.1	21.4	25015.4
317.200	70.8	96.4	17.1	21.9	21.3	25015.5
317.300	68.9	96.8	16.8	21.9	21.3	25015.1
317.400	68.0	97.2	17.0	22.0	21.1	25015.3
317.500	64.8	97.4	16.7	21.9	21.0	25015.0
317.600	65.7	97.7	16.7	21.9	21.0	25015.0
317.700	66.6	97.9	16.5	22.0	20.9	25014.7
317.800	66.1	97.8	16.5	21.9	20.9	25014.7
317.900	68.0	98.1	16.3	21.9	20.8	25014.4
318.000	69.4	98.1	16.1	21.9	21.0	25014.2
318.100	68.0	98.1	16.0	21.8	20.8	25014.1
318.200	64.8	98.2	16.0	21.7	20.8	25014.1
318.300	70.3	98.2	16.0	21.4	20.7	25014.2
318.400	70.3	98.2	16.0	21.6	20.8	25014.1
318.500	68.9	98.2	16.0	21.4	20.7	25014.2
318.600	69.4	98.3	16.0	21.3	20.8	25014.2
318.700	71.2	98.2	15.9	21.3	20.7	25014.1
318.800	69.4	98.1	16.0	21.2	20.6	25014.3
318.900	67.5	98.2	16.0	21.6	20.8	25014.1
319.000	67.5	98.1	15.9	21.4	20.6	25014.1
319.100	67.5	97.9	16.0	21.4	20.7	25014.2
319.200	68.9	97.9	15.9	21.3	20.7	25014.1
319.300	69.8	97.8	15.9	21.2	20.6	25014.1
319.400	66.6	97.8	15.9	21.0	20.7	25014.2
319.500	68.5	97.7	15.9	21.0	20.7	25014.2
319.600	71.2	97.6	16.0	20.8	20.7	25014.4
319.700	74.0	97.4	16.0	20.8	20.7	25014.4
319.800	72.6	97.3	16.0	20.8	20.7	25014.4
319.900	73.1	97.3	15.8	20.7	20.8	25014.2
320.000	74.9	97.2	16.0	20.4	20.9	25014.5
320.100	74.0	97.2	16.0	20.3	21.0	25014.6
320.200	74.0	97.1	16.1	20.4	21.0	25014.7
320.300	76.8	97.0	16.0	20.5	21.2	25014.5
320.400	79.1	97.0	16.2	20.5	21.2	25014.8
320.500	75.4	96.9	16.2	20.3	21.2	25014.8
320.600	73.1	96.7	16.3	19.9	21.3	25015.1
320.700	69.8	96.6	16.4	20.0	21.5	25015.2
320.800	68.9	96.3	16.5	20.0	21.4	25015.3
320.900	69.4	96.2	16.8	20.0	21.7	25015.7
321.000	70.3	96.1	16.8	20.0	21.7	25015.7
321.100	68.5	96.1	16.8	19.9	21.8	25015.8
321.200	69.8	96.1	17.0	20.0	21.8	25016.0
321.300	68.0	96.0	17.0	19.9	21.9	25016.0
321.400	65.2	95.8	17.2	19.9	21.9	25016.3
321.500	64.3	95.8	17.1	19.9	22.0	25016.2
321.600	68.9	95.7	17.2	19.8	22.0	25016.3
321.700	69.4	95.6	17.2	19.7	22.0	25016.4
321.800	68.5	95.7	17.2	19.9	22.0	25016.3
321.900	65.2	95.7	17.2	19.7	22.1	25016.4
322.000	63.4	95.5	17.2	19.9	22.0	25016.3
322.100	62.9	95.4	17.1	19.7	22.0	25016.2
322.200	68.0	95.5	17.0	19.7	22.0	25016.1
322.300	64.3	95.5	17.1	19.8	21.9	25016.2
322.400	68.0	95.6	17.1	19.8	21.9	25016.2
322.500	68.5	95.7	17.0	19.9	21.8	25016.0
322.600	67.1	95.7	17.0	19.8	21.6	25016.1
322.700	64.8	95.8	16.9	20.0	21.6	25015.9
322.800	65.7	95.8	17.0	20.1	21.6	25016.0
322.900	68.0	95.9	16.9	20.0	21.5	25015.9
323.000	72.2	96.0	16.9	20.2	21.4	25015.8
323.100	77.2	96.1	16.8	20.2	21.4	25015.7
323.200	82.8	96.1	16.9	20.1	21.3	25015.8
323.300	79.6	96.1	16.8	20.4	21.2	25015.6
323.400	82.8	96.1	16.7	20.2	21.2	25015.5
323.500	77.7	96.1	16.8	20.3	21.0	25015.6
323.600	74.5	96.1	16.8	20.0	21.1	25015.7
323.700	75.4	96.1	16.7	20.1	21.0	25015.6
323.800	75.4	96.0	16.6	20.1	21.1	25015.4
323.900	74.0	96.0	16.7	20.2	21.0	25015.5
324.000	75.9	96.0	16.7	20.2	21.1	25015.5
324.100	72.2	95.9	16.6	20.4	21.1	25015.3
324.200	70.8	95.8	16.6	20.3	21.3	25015.4
324.300	63.4	95.9	16.6	20.4	21.2	25015.3
324.400	65.2	95.7	16.6	20.3	21.3	25015.4
324.500	66.1	95.7	16.7	20.3	21.4	25015.5
324.600	68.9	95.6	16.7	20.3	21.5	25015.5
324.700	72.2	95.5	16.7	20.5	21.4	25015.4
324.800	74.9	95.4	16.7	20.6	21.4	25015.4
324.900	74.9	95.4	16.8	20.7	21.5	25015.5
325.000	75.9	95.4	16.8	20.6	21.4	25015.5
325.100	76.3	95.4	16.8	20.5	21.5	25015.6
325.200	80.0	95.3	16.8	20.5	21.5	25015.6
325.300	78.2	95.3	16.8	20.8	21.6	25015.5
325.400	78.2	95.3	16.7	20.7	21.5	25015.4
325.500	79.6	95.3	16.8	20.7	21.6	25015.5
325.600	80.9	95.2	16.6	20.4	21.5	25015.3
325.700	84.6	95.3	16.7	20.4	21.4	25015.5
325.800	84.6	95.3	16.6	20.3	21.5	25015.4
325.900	84.6	95.4	16.6	20.3	21.4	25015.4
326.000	91.1	95.4	16.6	20.3	21.4	25015.4
326.100	91.6	95.5	16.6	20.4	21.3	25015.3
326.200	87.9	95.5	16.5	20.3	21.2	25015.2
326.300	87.4	95.6	16.5	20.4	21.2	25015.2
326.400	90.2	95.7	16.3	20.4	21.2	25014.9
326.500	96.7	95.8	16.3	20.2	21.1	25015.0
326.600	93.0	95.8	16.3	20.3	21.2	25015.0
326.700	90.7	95.8	16.2	20.3	21.1	25014.8
326.800	85.6	95.8	16.2	20.5	21.0	25014.8
326.900	84.6	95.9	16.2	20.4	21.0	25014.8
327.000	82.3	95.9	16.1	20.2	21.0	25014.7
327.100	79.1	95.9	16.1	20.3	21.0	25014.7
327.200	76.3	95.8	16.0	20.4	21.0	25014.5
327.300	79.1	95.8	16.0	20.3	20.9	25014.6
327.400	78.2	95.7	16.0	20.4	20.8	25014.5
327.500	74.5	95.7	16.0	20.3	21.0	25014.6
327.600	74.0	95.6	16.0	20.4	20.9	25014.5
327.700	75.4	95.6	15.9	20.3	21.0	25014.4
327.800	75.4	95.5	16.0	20.4	20.9	25014.5
327.900	77.2	95.5	15.8	20.4	20.9	25014.3
328.000	76.3	95.4	15.8	20.2	21.0	25014.3
328.100	77.2	95.5	15.9	20.6	21.0	25014.3
328.200	73.5	95.7	15.7	20.4	21.0	25014.1
328.300	75.4	95.6	15.6	20.6	21.0	25013.9
328.400	73.5	95.6	15.7	21.2	21.0	25013.9
328.500	72.6	95.6	15.6	21.2	21.1	25013.7
328.600	76.8	95.4	15.6	21.1	21.1	25013.8
328.700	73.5	95.6	15.6	21.1	21.1	25013.8
328.800	71.7	95.6	15.5	21.0	21.1	25013.7
328.900	73.5	95.6	15.6	21.2	21.1	25013.7
329.000	72.6	95.6	15.5	21.1	21.0	25013.6
329.100	77.2	95.7	15.5	21.4	21.0	25013.5
329.200	76.8	95.6	15.4	21.4	21.0	25013.4
329.300	79.1	95.6	15.5	21.2	20.9	25013.6
329.400	80.0	95.6	15.5	21.5	20.9	25013.5
329.500	80.0	95.7	15.5	21.6	20.8	25013.5
329.600	80.5	95.7	15.4	21.5	20.6	25013.4
329.700	81.9	95.8	15.4	21.7	20.7	25013.3
329.800	82.8	96.1	15.4	21.6	20.7	25013.3
329.900	83.7	96.1	15.4	21.7	20.6	25013.3
330.000	80.5	96.2	15.5	21.5	20.7	25013.5
330.100	77.7	96.3	15.7	21.6	20.8	25013.7
330.200	75.4	96.2	15.6	21.7	20.7	25013.6
330.300	76.8	96.2	15.8	21.6	20.8	25013.9
330.400	74.9	96.2	16.0	21.6	20.8	25014.1
330.500	77.2	96.2	16.0	21.9	20.9	25014.0
330.600	80.5	96.1	16.0	21.8	20.8	25014.1
330.700	82.8	96.1	15.9	22.0	20.9	25013.9
330.800	75.9	96.0	16.0	21.8	21.0	25014.1
330.900	77.2	96.1	16.1	22.2	21.0	25014.1
331.000	77.2	95.9	16.3	22.1	21.1	25014.4
331.100	75.9	95.8	16.5	22.1	21.3	25014.6
331.200	76.8	95.8	16.7	22.3	21.3	25014.8
331.300	76.8	95.8	16.8	22.1	21.5	25015.0
331.400	71.7	95.5	17.1	22.2	21.4	25015.4
331.500	79.1	95.3	17.2	22.5	21.6	25015.4
331.600	75.9	95.3	17.3	22.6	21.7	25015.5
331.700	73.5	95.2	17.3	22.7	21.7	25015.5
331.800	74.0	95.1	17.4	22.3	21.8	25015.8
331.900	78.2	95.1	17.8	22.4	21.9	25016.3
332.000	74.9	94.9	18.0	22.5	21.9	25016.5
332.100	77.2	94.9	18.2	22.4	22.0	25016.8
332.200	80.5	94.9	18.5	22.6	22.2	25017.1
332.300	83.3	94.9	18.6	22.7	22.3	25017.2
332.400	81.9	94.8	18.8	22.8	22.4	25017.5
