~Version Information
VERS.                2.0:  CWLS LOG ASCII STANDARD -VERSION 2.0
~WELL INFORMATION BLOCK
#MNEM.UNIT       DATA		            DESCRIPTION OF MNEMONIC
#---------    -------------            ------------------------
STRT.FT  1.200                          :START DEPTH
STOP.FT  1599.200                       :STOP DEPTH
STEP.FT  0.100                          :STEP    UP_HOLE
NULL.    -999.25                        :NULL VALUE
COMP.                             MDGS  :COMPANY
WELL.                           SMBC39  :WELL
FLD .                      Persimmon H  :FIELD
LOC .    None  None  None               :LOCATION
CNTY.                       St. Mary's  :COUNTY
STAT.                    Md.            :STATE
SRVC.           None                    :SERVICE COMPANY
DATE.   03/11/02                        :LOG DATE
UWI .                       	         :UNIQUE WELL ID
LIC .                                   :LICENSE NUMBER
~Curve Information Block
#MNEM.UNIT      API CODE     Curve Description
#---------    -------------  ------------------------
DEPT     .FT        00 001 00 00          :  1  DEPTH
GAM(NAT) .API-GR    00 310 00 00          :  2             GAM(NAT)
SP       .MV        00 010 00 00          :  3                   SP
RES(16N) .OHM-M     00 040 00 00          :  4             RES(16N)
RES(64N) .OHM-M     00 060 00 00          :  5             RES(64N)
RES      .OHM       00 000 00 00          :  6                  RES
LATERAL  .OHM-M     00 070 00 00          :  7              LATERAL
~Parameter Information Block
#MNEM.UNIT   Information     Description
#---------- ---------------  ------------------------
FILE.      ORIGINAL           :File Type
FIID.      8044A              :File Type Identifier
VERS.      1.0                :System Version
SER .      1                  :System Serial Number
TRUK.      0.0                :Truck Calibration Number
TOOL.         904             :Tool Serial Number
TIME.      1205               :Time    HrHrMinMin
LAT .          None           :Latitude
LON .          None           :Longitude
LMF .       Grnd. L           :Log Measured From
DMF .       Grnd. L           :Driller Measured From
PD  .          None           :Permanent Data
PDEV.          None           :Elevation Permanent Data
EKB .M         None           :Elevation Kelly Bushing
ELEV.DF        None           :Elevation DF
EGL .M         None           :Elevation Ground Level
DRDP.          1600           :Driller's Depth
CASD.        12               :Casing Diameter
CASB.            40           :Casing Bottom
CASX.         Steel           :Casing Type
CAST.         0               :Casing Thickness
TNOC.          None           :Time Circulation Stopped
LOGU.       None              :Logging Unit
RECB.        A. McThena       :Recorded By
OSR1.          None           :Other Services
OSR2.          None           :Other Services
OSR3.          None           :Other Services
BS  .MM          11           :Bit Size
MST .                         :Mean Surface Temperature
TGRD.        0                :Temperature Gradiant
MAGN.             0           :Magnetic Declination
MDEN.      2.71               :Density Matrix
MATR.       Dolomite          :Neutron Matrix
DTMT.            54           :Delta T Matrix
DTFL.                         :Delta T Fluid
MUDS.               0         :Mud Sample Source
MRS .           0             :Mud Resistivity
MTP .           0             :Mud Temperature
MFRS.                         :Resistivity Mud Filtrate
MFTP.                         :Temperature Mud Filtrate
MCRS.         0               :Resistivity Mud Cake
MCTP.                         :Temperature Mud Cake
FTYP.             0           :Fluid Type
FD  .K/M3                     :Fluid Density
DFV .S                        :Fluid Viscosity
FPH .                         :Fuild PH
ELCO.        2500             :Electron Cutoff
~Other Information
#MNEM.UNIT  Information      Description
#---------- ---------------  ------------------------
# --------------------------
#<------------------LOG DATA-------------------
#DEPT	GAM(NAT)	SP	RES(16N)	RES(64N)	RES	LATERAL
#FT	API-GR	MV	OHM-M	OHM-M	OHM	OHM-M
~A DEPTH  GAM(NAT) SP    RES(16N) RES(64N) RES      LATERAL  
# ...
97.500	34.7	91.8	52.0	108.7	28.7	25033.1
97.600	34.7	91.6	52.5	108.4	28.6	25033.9
97.700	33.3	91.3	52.7	108.1	28.8	25034.2
97.800	33.8	91.3	52.8	107.6	28.8	25034.5
97.900	33.8	91.1	53.3	107.4	29.1	25035.3
98.000	30.5	91.0	53.7	106.9	29.3	25036.0
98.100	31.5	90.8	54.0	106.5	29.7	25036.5
98.200	33.3	90.2	54.3	106.1	29.9	25037.0
98.300	33.3	89.7	55.0	105.6	30.1	25038.1
98.400	33.3	89.1	55.4	105.1	30.5	25038.8
98.500	32.8	88.7	56.1	104.5	30.6	25040.0
98.600	31.5	88.3	56.7	104.0	30.8	25040.9
98.700	29.6	88.0	57.0	103.7	31.1	25041.4
98.800	29.6	87.7	57.8	103.2	31.3	25042.7
98.900	27.8	87.4	58.2	103.0	31.5	25043.3
99.000	27.8	87.2	59.0	102.9	31.5	25044.4
99.100	28.7	87.3	59.5	102.7	31.8	25045.1
99.200	28.2	87.2	60.3	102.5	31.9	25046.2
99.300	24.1	87.2	61.1	102.1	32.1	25047.4
99.400	23.6	87.2	61.7	101.8	32.2	25048.3
99.500	24.1	87.1	62.4	101.4	32.2	25049.4
99.600	24.5	87.1	62.5	101.3	32.3	25049.6
99.700	25.9	87.2	62.6	100.9	32.5	25049.8
99.800	28.2	87.1	62.8	101.1	32.8	25050.0
99.900	27.8	87.1	63.1	100.8	33.0	25050.5
100.000	29.1	87.0	63.4	100.6	33.1	25051.0
100.100	31.5	86.8	63.6	100.6	33.0	25051.3
100.200	30.1	86.8	63.8	100.3	33.0	25051.6
100.300	31.0	86.7	64.0	100.2	33.0	25051.9
100.400	31.9	86.5	64.1	99.8	33.2	25052.2
100.500	31.9	86.6	64.2	99.7	33.2	25052.4
100.600	32.4	86.4	64.3	99.8	33.4	25052.5
100.700	33.8	86.4	64.7	99.6	33.4	25053.1
100.800	33.3	86.4	64.8	99.5	33.5	25053.2
100.900	34.2	86.4	65.0	99.5	33.5	25053.5
101.000	34.7	86.6	65.3	99.4	33.5	25053.9
101.100	35.6	86.6	65.5	99.5	33.6	25054.2
101.200	33.8	86.3	65.7	99.4	33.6	25054.5
101.300	35.6	86.2	65.7	99.2	33.5	25054.5
101.400	32.8	86.2	65.8	99.2	33.5	25054.7
101.500	32.8	86.2	66.0	99.1	33.4	25055.0
101.600	35.2	86.2	66.0	99.0	33.4	25055.0
101.700	33.8	86.2	66.0	98.9	33.3	25055.0
101.800	33.8	86.2	66.0	98.7	33.2	25055.1
101.900	32.4	86.3	65.8	98.6	33.2	25054.9
102.000	30.1	86.3	65.6	98.3	33.1	25054.7
102.100	32.4	86.3	65.6	98.2	33.1	25054.7
102.200	30.5	86.5	65.5	98.1	32.9	25054.6
102.300	30.5	86.4	65.1	97.6	32.9	25054.3
102.400	30.5	86.4	64.6	97.7	32.9	25053.6
102.500	30.1	86.6	64.2	97.4	32.6	25053.1
102.600	32.4	86.5	64.0	97.0	32.7	25053.0
102.700	28.2	86.7	63.6	97.2	32.6	25052.4
102.800	29.1	86.9	63.0	97.1	32.5	25051.6
102.900	29.1	86.9	62.5	97.0	32.4	25051.0
103.000	29.1	86.9	62.3	96.9	32.3	25050.8
103.100	29.6	87.0	61.7	96.8	32.1	25050.0
103.200	28.2	86.9	61.0	96.9	32.1	25049.0
103.300	30.5	87.0	60.4	96.8	31.8	25048.3
103.400	31.0	87.3	59.8	96.7	31.8	25047.5
103.500	28.7	87.4	59.3	96.5	31.8	25046.9
103.600	30.5	87.4	58.8	96.4	31.8	25046.3
103.700	29.6	87.6	58.3	96.2	31.6	25045.7
103.800	31.5	87.7	57.8	96.1	31.3	25045.0
103.900	31.0	87.9	57.0	95.9	31.1	25044.0
104.000	28.2	88.2	56.7	96.0	30.9	25043.6
104.100	28.7	88.4	56.1	95.5	30.6	25043.0
104.200	31.0	88.5	55.4	95.3	30.5	25042.1
104.300	31.5	88.6	54.7	95.2	30.2	25041.2
104.400	31.5	88.8	54.0	95.0	30.2	25040.3
104.500	31.9	89.1	53.8	94.8	29.9	25040.1
104.600	33.3	89.3	53.2	94.8	29.6	25039.3
104.700	34.7	89.6	52.5	94.5	29.5	25038.5
104.800	37.5	89.6	51.8	94.4	29.4	25037.6
104.900	36.5	89.8	51.4	94.2	29.2	25037.1
105.000	36.5	90.0	50.9	94.2	29.0	25036.5
105.100	38.4	90.1	50.2	94.0	28.9	25035.6
105.200	38.4	90.2	49.7	94.0	28.6	25034.9
105.300	37.9	90.3	49.2	93.8	28.6	25034.3
105.400	36.5	90.3	48.8	93.8	28.4	25033.8
105.500	33.8	90.5	48.2	93.6	28.2	25033.1
105.600	34.7	90.7	47.8	93.8	28.1	25032.5
105.700	36.5	90.8	47.2	93.6	28.3	25031.7
105.800	35.2	91.2	46.7	93.6	28.1	25031.1
105.900	33.3	91.6	46.4	93.7	28.0	25030.6
106.000	36.1	92.0	46.4	93.5	28.0	25030.7
106.100	36.5	92.3	46.2	93.4	27.7	25030.5
106.200	36.5	92.6	45.6	93.3	27.5	25029.7
106.300	38.4	92.8	45.4	92.9	27.3	25029.6
106.400	35.2	93.1	45.1	92.8	27.0	25029.2
106.500	35.6	93.2	44.8	92.4	27.0	25028.9
106.600	35.6	93.4	44.4	92.4	26.8	25028.4
106.700	32.4	93.8	44.3	92.4	26.8	25028.3
106.800	31.5	93.9	44.1	91.9	26.8	25028.2
106.900	31.9	94.3	44.0	91.5	26.7	25028.2
107.000	29.1	94.3	44.0	91.3	26.6	25028.2
107.100	27.3	94.6	43.9	91.0	26.5	25028.2
107.200	26.8	94.6	43.6	91.0	26.5	25027.8
107.300	28.7	94.6	43.5	90.6	26.6	25027.8
107.400	26.4	94.9	43.4	90.6	26.4	25027.7
107.500	31.0	95.1	43.2	90.4	26.4	25027.5
107.600	31.0	95.2	43.3	90.1	26.4	25027.7
107.700	35.2	95.3	43.2	89.8	26.3	25027.7
107.800	39.3	95.4	43.2	89.4	26.4	25027.8
107.900	36.5	95.5	43.2	89.3	26.4	25027.8
108.000	37.5	95.3	43.0	89.2	26.4	25027.6
108.100	39.8	95.6	43.0	89.0	26.5	25027.7
108.200	39.8	95.7	43.0	88.8	26.4	25027.7
108.300	39.3	95.7	43.0	88.7	26.6	25027.8
108.400	37.0	95.7	42.9	88.4	26.5	25027.7
108.500	37.9	95.8	42.8	88.1	26.6	25027.7
108.600	35.2	95.8	42.8	88.0	26.6	25027.7
108.700	35.6	95.9	42.8	87.7	26.7	25027.8
108.800	31.9	96.0	42.8	87.6	26.7	25027.9
108.900	30.1	95.9	42.7	87.2	26.7	25027.9
109.000	30.5	95.9	42.8	87.2	26.7	25028.0
109.100	30.5	95.9	42.7	86.9	26.9	25028.0
109.200	29.1	95.8	42.7	86.5	26.9	25028.1
109.300	30.5	95.7	42.6	86.6	27.0	25027.9
109.400	30.5	95.8	42.8	86.1	27.2	25028.4
109.500	31.5	95.7	42.7	85.7	27.1	25028.4
109.600	32.8	95.7	42.7	85.6	27.2	25028.4
109.700	32.8	95.7	42.7	85.1	27.1	25028.6
109.800	33.8	95.7	42.8	85.0	27.1	25028.7
109.900	35.6	95.8	42.7	84.8	26.9	25028.7
110.000	33.3	95.8	42.9	84.5	26.9	25029.0
110.100	34.7	95.9	42.8	84.3	26.8	25029.0
110.200	33.8	95.8	42.8	83.8	26.8	25029.1
110.300	31.9	95.8	42.9	83.4	26.6	25029.4
110.400	30.5	95.8	43.0	83.3	26.6	25029.6
110.500	29.6	95.8	43.0	83.2	26.6	25029.6
110.600	27.8	95.8	43.0	83.1	26.6	25029.6
110.700	26.8	95.9	43.1	83.1	26.6	25029.8
110.800	27.8	95.9	43.1	82.8	26.6	25029.9
110.900	27.3	95.8	43.2	82.6	26.7	25030.1
111.000	26.4	95.8	43.2	82.4	26.9	25030.1
111.100	25.9	95.8	43.4	82.1	26.9	25030.5
111.200	25.0	95.8	43.3	82.0	27.0	25030.4
111.300	25.9	95.7	43.5	81.8	27.1	25030.7
111.400	26.8	95.7	43.5	81.8	27.2	25030.7
111.500	25.0	95.5	43.5	81.5	27.2	25030.8
111.600	28.2	95.4	43.6	81.2	27.4	25031.1
111.700	30.5	95.3	43.6	81.1	27.3	25031.1
111.800	29.6	95.3	43.8	81.0	27.4	25031.4
111.900	27.3	95.2	43.7	80.8	27.5	25031.3
112.000	28.2	95.0	43.8	80.5	27.5	25031.6
112.100	27.3	94.8	43.8	80.4	27.5	25031.6
112.200	29.6	94.8	43.7	80.4	27.6	25031.5
112.300	30.5	94.7	43.8	80.2	27.5	25031.7
112.400	29.1	94.6	43.8	80.0	27.5	25031.7
112.500	29.1	94.6	43.8	79.9	27.6	25031.8
112.600	31.9	94.4	43.8	79.7	27.4	25031.8
112.700	30.5	94.3	43.8	79.4	27.3	25031.9
112.800	29.6	94.3	43.7	79.4	27.4	25031.8
112.900	32.8	94.3	43.6	79.1	27.3	25031.8
113.000	34.7	94.3	43.6	79.1	27.2	25031.8
113.100	31.5	93.8	43.4	78.9	27.2	25031.6
113.200	32.4	94.2	43.4	78.8	27.2	25031.6
113.300	31.5	94.0	43.2	78.8	27.1	25031.3
113.400	31.5	94.0	43.2	78.6	27.0	25031.4
113.500	32.4	94.1	43.0	78.7	27.0	25031.1
113.600	34.2	94.1	43.0	78.8	27.0	25031.1
113.700	35.2	94.2	42.9	78.4	26.9	25031.1
113.800	34.2	94.3	42.8	78.3	26.8	25031.0
113.900	32.8	94.3	42.6	78.2	26.9	25030.7
114.000	29.1	94.3	42.5	78.0	26.8	25030.7
114.100	27.8	94.3	42.2	77.9	26.8	25030.3
114.200	30.5	94.3	42.3	77.8	26.8	25030.5
114.300	33.8	94.3	42.1	78.0	26.7	25030.1
114.400	34.7	94.2	41.9	78.2	26.8	25029.8
114.500	35.6	94.3	41.9	78.0	26.7	25029.9
114.600	36.1	94.3	41.9	77.9	26.7	25029.9
114.700	33.8	94.4	41.8	78.1	26.7	25029.7
114.800	34.7	94.7	41.8	77.9	26.6	25029.8
114.900	37.0	94.6	41.8	78.0	26.7	25029.7
115.000	40.7	94.7	41.7	77.7	26.6	25029.7
115.100	39.8	94.6	41.5	77.7	26.6	25029.4
115.200	39.8	94.5	41.3	77.7	26.5	25029.2
115.300	39.8	94.7	41.2	77.4	26.5	25029.1
115.400	37.9	94.8	41.0	77.5	26.5	25028.8
115.500	37.0	94.9	41.0	77.3	26.4	25028.9
115.600	37.0	95.0	40.8	77.1	26.4	25028.7
115.700	38.9	94.8	40.8	77.1	26.3	25028.7
115.800	38.9	95.1	40.8	76.6	26.4	25028.9
115.900	37.0	95.1	40.6	76.6	26.3	25028.6
116.000	40.2	95.2	40.6	76.5	26.2	25028.6
116.100	37.5	95.3	40.6	76.3	26.2	25028.7
116.200	39.3	95.3	40.4	76.1	26.1	25028.5
116.300	39.8	95.3	40.5	75.9	26.2	25028.7
116.400	40.2	95.3	40.5	75.8	26.2	25028.7
116.500	39.8	95.4	40.6	75.8	26.2	25028.9
116.600	41.6	95.5	40.4	75.6	26.1	25028.7
116.700	38.9	95.4	40.5	75.5	26.1	25028.8
116.800	36.1	95.3	40.4	75.3	26.2	25028.8
116.900	37.5	95.2	40.5	75.2	26.0	25028.9
117.000	38.4	95.1	40.4	75.1	26.1	25028.8
