~Version Information
VERS.                2.0:  CWLS LOG ASCII STANDARD -VERSION 2.0
~WELL INFORMATION BLOCK
#MNEM.UNIT       DATA		            DESCRIPTION OF MNEMONIC
#---------    -------------            ------------------------
STRT.FT  1.200                          :START DEPTH
STOP.FT  1599.200                       :STOP DEPTH
STEP.FT  0.100                          :STEP    UP_HOLE
NULL.    -999.25                        :NULL VALUE
COMP.                             MDGS  :COMPANY
WELL.                           SMBC39  :WELL
FLD .                      Persimmon H  :FIELD
LOC .    None  None  None               :LOCATION
CNTY.                       St. Mary's  :COUNTY
STAT.                    Md.            :STATE
SRVC.           None                    :SERVICE COMPANY
DATE.   03/11/02                        :LOG DATE
UWI .                       	         :UNIQUE WELL ID
LIC .                                   :LICENSE NUMBER
~Curve Information Block
#MNEM.UNIT      API CODE     Curve Description
#---------    -------------  ------------------------
DEPT     .FT        00 001 00 00          :  1  DEPTH
GAM(NAT) .API-GR    00 310 00 00          :  2             GAM(NAT)
SP       .MV        00 010 00 00          :  3                   SP
RES(16N) .OHM-M     00 040 00 00          :  4             RES(16N)
RES(64N) .OHM-M     00 060 00 00          :  5             RES(64N)
RES      .OHM       00 000 00 00          :  6                  RES
LATERAL  .OHM-M     00 070 00 00          :  7              LATERAL
~Parameter Information Block
#MNEM.UNIT   Information     Description
#---------- ---------------  ------------------------
FILE.      ORIGINAL           :File Type
FIID.      8044A              :File Type Identifier
VERS.      1.0                :System Version
SER .      1                  :System Serial Number
TRUK.      0.0                :Truck Calibration Number
TOOL.         904             :Tool Serial Number
TIME.      1205               :Time    HrHrMinMin
LAT .          None           :Latitude
LON .          None           :Longitude
LMF .       Grnd. L           :Log Measured From
DMF .       Grnd. L           :Driller Measured From
PD  .          None           :Permanent Data
PDEV.          None           :Elevation Permanent Data
EKB .M         None           :Elevation Kelly Bushing
ELEV.DF        None           :Elevation DF
EGL .M         None           :Elevation Ground Level
DRDP.          1600           :Driller's Depth
CASD.        12               :Casing Diameter
CASB.            40           :Casing Bottom
CASX.         Steel           :Casing Type
CAST.         0               :Casing Thickness
TNOC.          None           :Time Circulation Stopped
LOGU.       None              :Logging Unit
RECB.        A. McThena       :Recorded By
OSR1.          None           :Other Services
OSR2.          None           :Other Services
OSR3.          None           :Other Services
BS  .MM          11           :Bit Size
MST .                         :Mean Surface Temperature
TGRD.        0                :Temperature Gradiant
MAGN.             0           :Magnetic Declination
MDEN.      2.71               :Density Matrix
MATR.       Dolomite          :Neutron Matrix
DTMT.            54           :Delta T Matrix
DTFL.                         :Delta T Fluid
MUDS.               0         :Mud Sample Source
MRS .           0             :Mud Resistivity
MTP .           0             :Mud Temperature
MFRS.                         :Resistivity Mud Filtrate
MFTP.                         :Temperature Mud Filtrate
MCRS.         0               :Resistivity Mud Cake
MCTP.                         :Temperature Mud Cake
FTYP.             0           :Fluid Type
FD  .K/M3                     :Fluid Density
DFV .S                        :Fluid Viscosity
FPH .                         :Fuild PH
ELCO.        2500             :Electron Cutoff
~Other Information
#MNEM.UNIT  Information      Description
#---------- ---------------  ------------------------
# --------------------------
#<------------------LOG DATA-------------------
#DEPT	GAM(NAT)	SP	RES(16N)	RES(64N)	RES	LATERAL
#FT	API-GR	MV	OHM-M	OHM-M	OHM	OHM-M
~A DEPTH  GAM(NAT) SP    RES(16N) RES(64N) RES      LATERAL  
# ...
1055.000	43.5	37.7	20.2	21.9	25.2	25019.6
1055.100	42.1	37.7	20.3	22.0	25.1	25019.7
1055.200	42.6	38.0	20.1	21.8	25.1	25019.5
1055.300	45.8	37.8	20.2	22.0	25.2	25019.6
1055.400	47.2	37.5	20.2	22.1	25.0	25019.6
1055.500	44.9	37.6	20.1	22.2	25.1	25019.4
1055.600	43.9	37.5	20.1	22.5	25.1	25019.3
1055.700	44.9	37.3	20.2	22.6	25.2	25019.4
1055.800	48.1	37.2	20.2	22.2	25.1	25019.5
1055.900	47.6	37.3	20.1	22.5	25.1	25019.3
1056.000	48.1	37.8	20.1	22.5	25.0	25019.3
1056.100	49.0	37.8	20.2	22.8	24.8	25019.3
1056.200	52.3	37.7	20.1	22.9	24.8	25019.2
1056.300	50.0	37.8	20.2	22.7	24.9	25019.4
1056.400	48.1	38.0	20.2	23.0	25.1	25019.3
1056.500	43.9	38.0	20.1	23.0	25.0	25019.1
1056.600	43.9	38.1	20.2	23.1	25.0	25019.2
1056.700	43.0	38.2	20.1	23.4	25.0	25019.0
1056.800	43.9	38.3	20.2	23.4	25.0	25019.1
1056.900	41.6	38.2	20.1	23.3	24.9	25019.0
1057.000	41.6	38.3	20.2	23.3	25.0	25019.2
1057.100	39.3	38.4	20.1	23.2	24.8	25019.1
1057.200	39.3	38.1	20.2	23.5	24.9	25019.1
1057.300	40.7	38.1	20.1	23.2	24.8	25019.1
1057.400	44.4	38.3	20.3	23.3	24.8	25019.3
1057.500	45.3	38.3	20.3	23.3	24.7	25019.3
1057.600	45.8	38.3	20.5	23.2	24.6	25019.6
1057.700	48.6	38.3	20.8	23.4	24.6	25019.9
1057.800	50.0	38.5	20.8	23.2	24.7	25020.0
1057.900	52.3	38.7	21.0	23.3	24.4	25020.2
1058.000	52.3	39.0	21.1	23.3	24.4	25020.4
1058.100	56.4	39.4	21.3	23.2	24.5	25020.7
1058.200	59.2	39.2	21.5	23.1	24.5	25021.0
1058.300	59.7	39.1	21.6	23.3	24.5	25021.0
1058.400	55.5	39.3	21.7	23.2	24.7	25021.2
1058.500	50.9	39.4	21.6	23.3	25.0	25021.0
1058.600	54.1	39.3	21.6	23.3	25.0	25021.0
1058.700	56.0	39.3	21.9	23.4	25.0	25021.4
1058.800	52.3	39.4	22.0	23.6	25.2	25021.5
1058.900	50.4	39.4	22.2	23.3	25.3	25021.8
1059.000	51.3	39.4	22.4	23.4	25.6	25022.1
1059.100	50.4	39.3	22.5	23.3	25.8	25022.2
1059.200	48.1	39.3	22.8	23.2	25.8	25022.7
1059.300	47.2	39.3	22.8	23.2	25.9	25022.7
1059.400	49.0	39.3	23.1	23.2	25.9	25023.1
1059.500	53.2	39.5	23.2	23.2	25.9	25023.2
1059.600	57.8	40.0	23.2	23.3	25.9	25023.2
1059.700	55.0	40.2	23.2	23.2	26.0	25023.2
1059.800	52.7	40.2	23.2	23.4	25.9	25023.1
1059.900	53.2	39.7	23.2	23.3	26.0	25023.2
1060.000	51.8	39.8	23.3	23.5	26.0	25023.2
1060.100	49.0	40.3	23.2	23.4	25.7	25023.1
1060.200	48.6	40.8	23.2	23.4	25.6	25023.1
1060.300	49.5	40.8	23.3	23.4	25.4	25023.3
1060.400	48.1	41.4	23.2	23.5	25.1	25023.1
1060.500	47.6	41.7	23.3	23.4	25.1	25023.3
1060.600	44.9	41.7	23.3	23.9	25.0	25023.1
1060.700	43.0	41.9	23.2	24.0	25.0	25022.9
1060.800	42.1	42.0	23.4	24.2	25.0	25023.1
1060.900	43.9	41.6	23.2	24.5	25.1	25022.8
1061.000	48.1	41.8	23.3	24.5	25.1	25022.9
1061.100	50.0	42.2	23.2	24.6	25.1	25022.7
1061.200	50.0	41.9	23.2	24.6	25.2	25022.7
1061.300	50.4	41.8	23.2	24.6	25.2	25022.7
1061.400	47.6	42.2	23.2	24.7	25.2	25022.7
1061.500	47.6	42.1	23.2	24.7	25.4	25022.7
1061.600	44.4	42.4	23.2	24.8	25.6	25022.7
1061.700	43.9	42.6	23.2	24.8	25.8	25022.7
1061.800	42.1	42.7	23.1	25.0	26.1	25022.5
1061.900	43.9	42.7	23.2	25.0	26.1	25022.6
1062.000	41.2	42.5	23.2	25.0	26.2	25022.6
1062.100	37.5	42.8	23.2	25.1	26.2	25022.6
1062.200	38.9	43.2	23.2	25.0	26.3	25022.6
1062.300	41.6	43.4	23.2	25.0	26.1	25022.6
1062.400	43.0	43.7	23.0	25.5	25.8	25022.2
1062.500	43.9	43.7	23.2	25.4	25.5	25022.5
1062.600	46.3	43.8	23.4	25.6	24.9	25022.7
1062.700	49.0	43.8	23.5	25.8	24.9	25022.7
1062.800	50.9	44.1	23.8	25.9	24.7	25023.1
1062.900	52.7	43.6	24.0	25.9	24.8	25023.4
1063.000	51.8	43.3	24.2	26.1	24.6	25023.6
1063.100	53.7	44.0	24.4	25.9	24.6	25023.9
1063.200	54.1	44.0	24.5	26.0	24.6	25024.0
1063.300	55.5	44.0	24.6	25.8	24.5	25024.2
1063.400	54.1	43.8	24.7	25.9	24.5	25024.3
1063.500	52.7	43.7	24.7	26.0	24.6	25024.3
1063.600	54.1	43.7	24.7	25.7	24.7	25024.4
1063.700	54.1	43.8	24.7	26.0	24.9	25024.3
1063.800	52.7	43.9	24.8	26.1	25.2	25024.4
1063.900	51.3	43.7	24.8	25.8	25.3	25024.5
1064.000	51.8	43.3	24.7	26.0	25.6	25024.3
1064.100	50.0	43.3	24.8	26.0	25.8	25024.4
1064.200	50.4	43.3	24.9	26.0	26.0	25024.5
1064.300	52.3	43.1	24.9	26.0	26.1	25024.5
1064.400	51.3	43.6	25.4	26.0	26.1	25025.2
1064.500	48.1	43.6	25.6	26.1	26.1	25025.4
1064.600	51.8	43.5	25.6	26.0	26.0	25025.5
1064.700	50.0	44.5	26.0	26.1	26.0	25026.0
1064.800	45.3	43.7	26.3	26.2	25.9	25026.3
1064.900	47.2	43.8	26.4	26.2	25.8	25026.5
1065.000	49.5	44.3	26.4	26.3	25.9	25026.4
1065.100	51.3	44.3	26.4	26.4	26.0	25026.4
1065.200	51.8	43.8	26.6	26.2	26.0	25026.7
1065.300	53.2	43.8	26.5	26.7	26.0	25026.4
1065.400	49.5	44.2	26.6	26.4	26.1	25026.7
1065.500	48.6	44.2	26.8	26.5	26.3	25026.9
1065.600	49.5	44.0	26.9	26.9	26.3	25026.9
1065.700	46.3	44.0	26.9	26.7	26.4	25027.0
1065.800	44.9	44.0	27.0	26.7	26.3	25027.1
1065.900	45.8	43.8	27.0	26.6	26.2	25027.1
1066.000	44.4	43.8	27.0	26.6	26.1	25027.1
1066.100	42.1	43.9	27.0	26.8	25.9	25027.1
1066.200	39.8	43.6	27.0	26.4	25.8	25027.2
1066.300	39.8	43.8	27.2	26.2	25.6	25027.5
1066.400	38.9	44.0	27.2	26.5	25.5	25027.4
1066.500	41.6	43.8	27.2	26.4	25.4	25027.5
1066.600	40.2	43.7	27.1	26.6	25.3	25027.3
1066.700	41.6	43.8	27.1	26.7	25.1	25027.2
1066.800	40.7	43.8	27.2	26.9	25.0	25027.3
1066.900	41.6	44.3	27.0	26.8	25.1	25027.1
1067.000	43.9	44.2	26.9	26.9	25.1	25026.9
1067.100	40.7	44.0	26.9	27.0	25.4	25026.9
1067.200	46.7	43.5	26.8	27.0	25.8	25026.7
1067.300	46.7	43.0	26.9	27.0	26.2	25026.9
1067.400	46.3	42.8	26.8	27.0	26.5	25026.7
1067.500	45.8	43.3	26.7	26.9	26.6	25026.6
1067.600	50.0	43.0	26.8	27.0	26.8	25026.7
1067.700	50.4	43.3	26.6	27.0	26.8	25026.5
1067.800	50.0	43.0	26.9	27.0	26.8	25026.9
1067.900	52.3	43.5	27.0	27.0	26.8	25027.0
1068.000	54.1	43.7	27.1	27.1	26.7	25027.1
1068.100	56.9	44.0	27.2	27.2	26.6	25027.2
1068.200	60.6	44.5	27.3	27.3	26.6	25027.3
1068.300	54.6	45.3	27.3	27.2	26.5	25027.3
1068.400	54.6	45.3	27.5	27.5	26.5	25027.5
1068.500	54.6	45.0	27.5	27.3	26.5	25027.6
1068.600	55.5	45.2	27.8	27.4	26.4	25027.9
1068.700	53.7	45.4	28.0	27.3	26.4	25028.2
1068.800	55.5	45.5	28.1	27.2	26.4	25028.4
1068.900	58.3	45.6	28.0	27.1	26.4	25028.3
1069.000	61.5	46.1	28.2	27.0	26.2	25028.6
1069.100	65.7	46.4	28.2	27.0	26.1	25028.6
1069.200	61.1	46.4	28.4	27.0	25.9	25028.9
1069.300	62.0	46.4	28.5	26.6	25.7	25029.1
1069.400	65.2	47.0	28.7	26.6	25.5	25029.4
1069.500	64.8	47.3	28.8	26.3	25.4	25029.6
1069.600	64.3	47.3	28.9	26.1	25.4	25029.8
1069.700	63.4	47.4	29.1	26.2	25.5	25030.1
1069.800	62.9	47.8	29.1	25.9	25.7	25030.2
1069.900	63.4	47.8	29.2	25.7	26.0	25030.4
1070.000	60.1	47.6	29.3	25.9	26.2	25030.4
1070.100	56.4	47.3	29.4	25.6	26.4	25030.7
1070.200	53.2	46.9	29.4	25.7	26.5	25030.6
1070.300	52.7	46.6	29.7	25.4	26.5	25031.1
1070.400	50.4	47.3	29.8	25.1	26.4	25031.4
1070.500	47.2	47.2	29.9	25.1	26.3	25031.5
1070.600	51.3	47.3	29.8	25.0	26.4	25031.4
1070.700	51.3	48.0	29.9	25.0	26.2	25031.5
1070.800	49.0	48.2	29.8	25.0	26.2	25031.4
1070.900	46.7	48.1	29.9	24.8	26.2	25031.6
1071.000	46.7	48.7	29.8	24.6	26.4	25031.5
1071.100	47.6	48.7	29.9	24.3	26.4	25031.8
1071.200	50.9	48.0	29.9	24.1	26.5	25031.8
1071.300	49.5	47.9	29.7	23.9	26.8	25031.6
1071.400	49.5	48.6	29.7	23.6	26.9	25031.7
1071.500	51.3	49.2	29.4	23.6	27.0	25031.3
1071.600	51.8	48.8	29.3	23.4	27.2	25031.3
1071.700	49.5	49.0	29.2	23.2	27.3	25031.2
1071.800	50.9	49.4	29.0	23.3	27.5	25030.9
1071.900	56.0	49.5	29.0	22.6	27.5	25031.1
1072.000	57.4	49.4	29.0	22.6	27.5	25031.1
1072.100	54.6	49.8	29.0	21.9	27.4	25031.4
1072.200	50.9	50.3	29.0	21.5	27.2	25031.5
1072.300	52.3	50.6	29.0	21.2	27.2	25031.6
1072.400	51.3	50.8	28.9	20.7	27.2	25031.6
1072.500	55.0	51.3	29.0	20.4	27.0	25031.9
1072.600	52.7	50.9	28.9	20.4	27.0	25031.7
1072.700	53.2	51.5	29.0	20.0	27.0	25032.0
1072.800	56.0	52.0	28.7	19.9	26.9	25031.6
1072.900	57.4	52.0	28.4	19.3	26.8	25031.4
1073.000	54.1	51.3	28.1	19.0	26.6	25031.1
1073.100	53.2	51.3	28.0	18.7	26.5	25031.1
1073.200	55.0	52.1	27.8	17.9	26.4	25031.1
1073.300	58.7	52.4	27.4	17.6	26.3	25030.7
1073.400	53.2	52.3	26.9	17.2	26.4	25030.1
1073.500	54.6	52.0	26.6	17.0	26.4	25029.8
1073.600	54.1	51.2	26.4	16.5	26.4	25029.7
1073.700	53.7	50.5	26.2	15.7	26.3	25029.7
1073.800	54.6	50.5	26.0	15.3	25.9	25029.6
1073.900	50.0	51.1	25.3	14.9	25.6	25028.8
1074.000	49.0	51.1	24.8	14.6	25.2	25028.2
