~Version Information
VERS.                2.0:  CWLS LOG ASCII STANDARD -VERSION 2.0
~WELL INFORMATION BLOCK
#MNEM.UNIT       DATA		            DESCRIPTION OF MNEMONIC
#---------    -------------            ------------------------
STRT.FT  1.200                          :START DEPTH
STOP.FT  1599.200                       :STOP DEPTH
STEP.FT  0.100                          :STEP    UP_HOLE
NULL.    -999.25                        :NULL VALUE
COMP.                             MDGS  :COMPANY
WELL.                           SMBC39  :WELL
FLD .                      Persimmon H  :FIELD
LOC .    None  None  None               :LOCATION
CNTY.                       St. Mary's  :COUNTY
STAT.                    Md.            :STATE
SRVC.           None                    :SERVICE COMPANY
DATE.   03/11/02                        :LOG DATE
UWI .                       	         :UNIQUE WELL ID
LIC .                                   :LICENSE NUMBER
~Curve Information Block
#MNEM.UNIT      API CODE     Curve Description
#---------    -------------  ------------------------
DEPT     .FT        00 001 00 00          :  1  DEPTH
GAM(NAT) .API-GR    00 310 00 00          :  2             GAM(NAT)
SP       .MV        00 010 00 00          :  3                   SP
RES(16N) .OHM-M     00 040 00 00          :  4             RES(16N)
RES(64N) .OHM-M     00 060 00 00          :  5             RES(64N)
RES      .OHM       00 000 00 00          :  6                  RES
LATERAL  .OHM-M     00 070 00 00          :  7              LATERAL
~Parameter Information Block
#MNEM.UNIT   Information     Description
#---------- ---------------  ------------------------
FILE.      ORIGINAL           :File Type
FIID.      8044A              :File Type Identifier
VERS.      1.0                :System Version
SER .      1                  :System Serial Number
TRUK.      0.0                :Truck Calibration Number
TOOL.         904             :Tool Serial Number
TIME.      1205               :Time    HrHrMinMin
LAT .          None           :Latitude
LON .          None           :Longitude
LMF .       Grnd. L           :Log Measured From
DMF .       Grnd. L           :Driller Measured From
PD  .          None           :Permanent Data
PDEV.          None           :Elevation Permanent Data
EKB .M         None           :Elevation Kelly Bushing
ELEV.DF        None           :Elevation DF
EGL .M         None           :Elevation Ground Level
DRDP.          1600           :Driller's Depth
CASD.        12               :Casing Diameter
CASB.            40           :Casing Bottom
CASX.         Steel           :Casing Type
CAST.         0               :Casing Thickness
TNOC.          None           :Time Circulation Stopped
LOGU.       None              :Logging Unit
RECB.        A. McThena       :Recorded By
OSR1.          None           :Other Services
OSR2.          None           :Other Services
OSR3.          None           :Other Services
BS  .MM          11           :Bit Size
MST .                         :Mean Surface Temperature
TGRD.        0                :Temperature Gradiant
MAGN.             0           :Magnetic Declination
MDEN.      2.71               :Density Matrix
MATR.       Dolomite          :Neutron Matrix
DTMT.            54           :Delta T Matrix
DTFL.                         :Delta T Fluid
MUDS.               0         :Mud Sample Source
MRS .           0             :Mud Resistivity
MTP .           0             :Mud Temperature
MFRS.                         :Resistivity Mud Filtrate
MFTP.                         :Temperature Mud Filtrate
MCRS.         0               :Resistivity Mud Cake
MCTP.                         :Temperature Mud Cake
FTYP.             0           :Fluid Type
FD  .K/M3                     :Fluid Density
DFV .S                        :Fluid Viscosity
FPH .                         :Fuild PH
ELCO.        2500             :Electron Cutoff
~Other Information
#MNEM.UNIT  Information      Description
#---------- ---------------  ------------------------
# --------------------------
#<------------------LOG DATA-------------------
#DEPT	GAM(NAT)	SP	RES(16N)	RES(64N)	RES	LATERAL
#FT	API-GR	MV	OHM-M	OHM-M	OHM	OHM-M
~A DEPTH  GAM(NAT) SP    RES(16N) RES(64N) RES      LATERAL  
# ...
1577.100	59.7	145.6	9.1	9.3	18.8	25009.0
1577.200	62.4	145.3	9.2	8.8	18.8	25009.3
1577.300	64.3	145.4	9.1	9.1	18.9	25009.1
1577.400	68.0	145.4	9.2	9.1	18.7	25009.2
1577.500	67.1	145.6	9.1	8.9	18.3	25009.2
1577.600	62.9	145.4	9.2	8.7	18.1	25009.4
1577.700	63.8	145.8	9.1	8.9	18.1	25009.2
1577.800	60.6	146.1	9.0	8.8	18.2	25009.1
1577.900	62.0	150.3	9.0	8.5	18.3	25009.2
1578.000	61.8	153.3	8.8	8.6	18.4	25008.9
1578.100	61.4	158.3	8.6	8.7	18.4	25008.6
1578.200	62.3	161.9	8.4	8.8	18.5	25008.3
1578.300	57.7	162.3	8.3	8.8	18.9	25008.1
1578.400	57.2	162.6	8.2	8.9	19.6	25008.0
1578.500	54.4	163.0	8.1	9.0	20.1	25007.8
1578.600	53.0	163.8	8.2	8.8	20.4	25008.0
1578.700	55.4	164.3	8.1	8.8	20.1	25007.9
1578.800	58.6	164.4	8.1	9.0	19.5	25007.8
1578.900	62.8	164.2	8.2	8.8	18.5	25008.0
1579.000	60.0	163.8	8.1	8.4	17.9	25008.0
1579.100	62.4	163.8	8.1	8.7	17.6	25007.9
1579.200	65.2	163.8	8.2	8.5	17.4	25008.1
1579.300	63.8	164.0	8.1	8.4	17.3	25008.0
1579.400	66.1	165.0	8.1	8.6	17.3	25007.9
1579.500	65.2	164.7	8.1	8.4	17.4	25008.0
1579.600	68.9	164.4	8.1	8.4	17.4	25008.0
1579.700	70.8	164.5	8.0	8.2	17.4	25007.9
1579.800	70.3	164.7	8.0	8.3	17.3	25007.9
1579.900	67.5	164.6	7.9	8.3	17.1	25007.8
1580.000	66.6	164.5	7.8	8.1	17.0	25007.7
1580.100	68.5	164.8	7.9	8.1	16.8	25007.8
1580.200	69.4	164.8	7.9	8.2	16.7	25007.8
1580.300	65.2	164.9	7.8	8.0	16.7	25007.7
1580.400	70.8	164.9	7.9	7.7	16.6	25008.0
1580.500	70.3	164.9	7.8	8.1	16.7	25007.7
1580.600	70.8	164.8	7.6	8.2	16.6	25007.4
1580.700	70.8	164.8	7.6	8.3	16.8	25007.4
1580.800	73.5	164.8	7.4	8.7	16.9	25007.0
1580.900	74.0	164.9	7.3	8.7	16.9	25006.8
1581.000	74.5	165.3	7.0	8.8	16.9	25006.4
1581.100	73.5	169.2	7.0	9.0	16.7	25006.3
1581.200	71.7	176.9	7.0	9.2	16.4	25006.3
1581.300	70.5	178.4	6.8	9.4	16.2	25005.9
1581.400	74.2	178.6	6.7	9.3	16.2	25005.8
1581.500	67.7	179.1	6.6	9.5	16.0	25005.6
1581.600	68.1	179.4	6.5	9.6	16.0	25005.5
1581.700	67.7	179.7	6.5	9.4	15.5	25005.5
1581.800	68.1	179.9	6.6	9.6	15.2	25005.6
1581.900	64.0	180.3	6.5	9.8	15.0	25005.4
1582.000	62.6	180.9	6.6	9.7	14.8	25005.6
1582.100	62.6	180.9	6.5	9.5	14.9	25005.5
1582.200	64.9	181.4	6.6	9.6	14.9	25005.6
1582.300	66.8	181.3	6.6	9.8	14.9	25005.5
1582.400	67.5	181.6	6.5	9.6	14.9	25005.5
1582.500	69.4	182.0	6.7	9.8	14.9	25005.7
1582.600	68.5	182.2	6.5	9.8	14.9	25005.4
1582.700	68.5	182.5	6.4	9.8	15.0	25005.3
1582.800	69.8	182.5	6.5	9.7	14.9	25005.4
1582.900	66.6	182.9	6.5	9.8	15.0	25005.4
1583.000	70.8	183.4	6.5	9.8	14.9	25005.4
1583.100	71.2	183.6	6.5	9.7	14.7	25005.4
1583.200	73.5	183.9	6.6	9.7	14.7	25005.6
1583.300	72.6	184.4	6.5	9.8	14.5	25005.4
1583.400	70.3	184.6	6.5	9.8	14.6	25005.4
1583.500	68.0	184.7	6.6	9.6	14.7	25005.6
1583.600	62.0	184.8	6.6	9.5	14.7	25005.6
1583.700	61.5	185.1	6.6	9.5	14.6	25005.6
1583.800	62.0	185.4	6.7	9.8	14.8	25005.7
1583.900	62.9	185.6	6.8	9.8	14.7	25005.8
1584.000	65.7	185.9	6.7	9.9	14.7	25005.6
1584.100	63.8	186.1	6.6	9.7	14.6	25005.6
1584.200	65.7	186.3	6.7	9.7	14.4	25005.7
1584.300	63.8	186.4	6.7	9.8	14.6	25005.7
1584.400	65.2	186.7	6.5	9.8	14.5	25005.4
1584.500	67.5	186.8	6.7	9.7	14.5	25005.7
1584.600	69.7	187.1	6.6	9.9	14.4	25005.5
1584.700	75.2	187.4	6.6	9.9	15.0	25005.5
1584.800	78.0	187.6	6.6	10.0	15.0	25005.5
1584.900	73.9	187.7	6.7	9.8	14.9	25005.7
1585.000	71.5	187.8	6.7	10.0	15.3	25005.6
1585.100	67.4	188.2	6.7	10.1	15.5	25005.6
1585.200	69.2	188.6	6.7	10.0	15.7	25005.6
1585.300	70.2	188.9	6.8	9.8	15.7	25005.8
1585.400	67.4	189.1	6.8	9.8	16.3	25005.8
1585.500	65.5	189.3	6.9	9.8	16.7	25005.9
1585.600	66.5	189.4	6.9	9.8	17.2	25005.9
1585.700	64.8	190.4	7.0	10.1	17.4	25006.0
1585.800	62.4	189.6	7.0	10.4	17.4	25005.9
1585.900	62.9	190.1	7.0	10.1	17.4	25006.0
1586.000	67.1	190.5	7.1	9.8	17.1	25006.2
1586.100	68.0	190.9	7.0	10.0	17.1	25006.0
1586.200	73.1	191.0	7.0	10.3	17.1	25005.9
1586.300	70.3	191.4	7.0	10.2	17.0	25005.9
1586.400	67.1	191.5	7.2	10.2	15.7	25006.2
1586.500	67.5	191.6	7.2	10.2	15.5	25006.2
1586.600	68.0	191.8	7.4	10.1	15.6	25006.5
1586.700	68.5	192.3	7.4	9.9	15.6	25006.6
1586.800	69.4	192.4	7.6	10.1	15.6	25006.8
1586.900	70.3	192.5	7.6	10.1	15.4	25006.8
1587.000	68.0	192.7	7.8	10.0	15.4	25007.1
1587.100	65.7	193.2	7.9	9.9	15.5	25007.2
1587.200	62.9	193.4	8.0	10.1	15.5	25007.3
1587.300	64.3	193.7	8.0	10.3	15.6	25007.3
1587.400	66.1	193.7	8.0	10.1	15.6	25007.4
1587.500	68.0	194.1	8.1	10.0	16.1	25007.5
1587.600	68.5	193.9	8.2	10.3	16.4	25007.5
1587.700	66.1	193.9	8.1	10.3	16.8	25007.4
1587.800	62.0	194.1	8.3	10.3	17.2	25007.6
1587.900	60.1	194.1	8.4	10.5	17.4	25007.7
1588.000	60.6	194.2	8.3	10.4	17.6	25007.6
1588.100	60.1	194.3	8.6	10.3	17.6	25008.0
1588.200	59.7	194.2	8.9	10.1	17.9	25008.5
1588.300	60.1	193.6	8.9	10.3	18.3	25008.4
1588.400	56.0	193.1	9.1	10.4	18.6	25008.7
1588.500	54.6	192.3	9.2	10.3	18.8	25008.8
1588.600	53.7	192.1	9.3	10.6	19.0	25008.9
1588.700	52.7	192.1	9.3	10.4	19.1	25008.9
1588.800	53.2	192.1	9.4	10.5	19.0	25009.0
1588.900	51.3	192.3	9.5	10.4	19.0	25009.2
1589.000	51.8	192.4	9.8	10.5	19.1	25009.6
1589.100	48.1	192.3	10.0	10.5	19.0	25009.8
1589.200	45.8	192.4	10.2	10.5	19.0	25010.1
1589.300	49.0	192.5	10.4	10.7	19.0	25010.3
1589.400	50.9	192.8	10.5	10.5	18.9	25010.5
1589.500	54.1	192.9	10.5	10.4	18.9	25010.5
1589.600	55.5	193.2	10.7	10.7	18.6	25010.7
1589.700	57.4	193.7	10.8	10.8	18.6	25010.8
1589.800	59.2	194.6	11.0	10.6	18.3	25011.1
1589.900	62.4	195.2	11.1	10.8	18.4	25011.2
1590.000	66.1	194.7	11.3	10.8	18.4	25011.5
1590.100	68.9	194.4	11.4	10.8	18.6	25011.6
1590.200	70.3	194.5	11.5	10.6	18.7	25011.8
1590.300	74.9	194.7	11.6	10.8	18.8	25011.9
1590.400	72.6	194.9	11.7	10.8	18.9	25012.0
1590.500	72.2	194.8	11.7	11.1	19.0	25011.9
1590.600	70.3	195.0	11.8	11.1	19.1	25012.0
1590.700	70.3	195.3	11.8	11.2	19.2	25012.0
1590.800	72.6	195.4	11.8	11.4	19.4	25011.9
1590.900	68.6	195.6	12.1	11.5	19.6	25012.3
1591.000	64.4	195.4	12.2	11.2	19.9	25012.5
1591.100	67.7	195.3	12.4	11.5	20.0	25012.7
1591.200	68.6	195.3	12.5	11.4	20.3	25012.9
1591.300	74.6	195.0	12.9	11.3	20.2	25013.4
1591.400	76.5	195.3	12.9	11.8	20.1	25013.3
1591.500	79.2	195.8	12.9	11.8	20.0	25013.3
1591.600	84.8	196.3	13.1	11.6	19.9	25013.6
1591.700	86.7	196.8	13.2	11.6	20.0	25013.7
1591.800	87.6	197.2	13.3	11.5	19.9	25013.9
1591.900	86.2	197.1	13.4	11.9	20.1	25013.9
1592.000	90.5	196.5	13.5	12.4	20.2	25013.9
1592.100	93.3	196.3	13.6	12.5	20.4	25014.0
1592.200	87.7	-999.25	13.7	12.2	20.5	-999.25
1592.300	84.0	-999.25	13.8	12.5	20.7	-999.25
1592.400	78.0	-999.25	13.9	12.6	20.9	-999.25
1592.500	76.2	-999.25	14.0	12.6	21.1	-999.25
1592.600	74.8	-999.25	14.2	12.5	21.1	-999.25
1592.700	69.8	-999.25	14.2	12.5	21.3	-999.25
1592.800	65.2	-999.25	14.2	12.7	21.4	-999.25
1592.900	59.7	-999.25	14.2	12.5	21.6	-999.25
1593.000	57.0	-999.25	14.3	12.8	21.7	-999.25
1593.100	56.7	-999.25	14.6	12.8	21.7	-999.25
1593.200	57.8	-999.25	14.7	12.8	21.6	-999.25
1593.300	59.7	-999.25	14.9	12.8	21.5	-999.25
1593.400	63.8	-999.25	15.1	12.7	21.7	-999.25
1593.500	63.8	-999.25	15.3	12.8	21.6	-999.25
1593.600	61.5	-999.25	15.3	12.9	21.6	-999.25
1593.700	61.8	-999.25	15.4	12.7	21.5	-999.25
1593.800	63.1	-999.25	15.4	12.9	21.4	-999.25
1593.900	65.7	-999.25	15.5	12.9	21.7	-999.25
1594.000	69.4	-999.25	15.6	13.2	21.7	-999.25
1594.100	71.8	-999.25	15.5	13.3	21.4	-999.25
1594.200	69.5	-999.25	15.5	13.3	21.3	-999.25
1594.300	67.7	-999.25	15.5	13.1	21.3	-999.25
1594.400	68.1	-999.25	15.6	13.5	21.5	-999.25
1594.500	64.9	-999.25	15.5	13.4	21.8	-999.25
1594.600	62.8	-999.25	15.5	13.4	21.9	-999.25
1594.700	66.9	-999.25	15.5	13.3	22.0	-999.25
1594.800	67.2	-999.25	15.5	-999.25	22.2	-999.25
1594.900	66.3	-999.25	15.6	-999.25	22.1	-999.25
1595.000	64.1	-999.25	15.5	-999.25	22.2	-999.25
1595.100	64.3	-999.25	15.5	-999.25	22.2	-999.25
1595.200	62.8	-999.25	15.5	-999.25	22.3	-999.25
1595.300	64.4	-999.25	15.5	-999.25	22.0	-999.25
1595.400	64.8	-999.25	15.5	-999.25	21.9	-999.25
1595.500	64.3	-999.25	15.5	-999.25	21.8	-999.25
1595.600	67.1	-999.25	15.5	-999.25	21.7	-999.25
1595.700	71.7	-999.25	15.4	-999.25	21.3	-999.25
1595.800	71.4	-999.25	15.3	-999.25	21.2	-999.25
1595.900	73.2	-999.25	15.3	-999.25	21.2	-999.25
