~Version Information
VERS.                2.0:  CWLS LOG ASCII STANDARD -VERSION 2.0
~WELL INFORMATION BLOCK
#MNEM.UNIT       DATA		            DESCRIPTION OF MNEMONIC
#---------    -------------            ------------------------
STRT.FT  1.200                          :START DEPTH
STOP.FT  1599.200                       :STOP DEPTH
STEP.FT  0.100                          :STEP    UP_HOLE
NULL.    -999.25                        :NULL VALUE
COMP.                             MDGS  :COMPANY
WELL.                           SMBC39  :WELL
FLD .                      Persimmon H  :FIELD
LOC .    None  None  None               :LOCATION
CNTY.                       St. Mary's  :COUNTY
STAT.                    Md.            :STATE
SRVC.           None                    :SERVICE COMPANY
DATE.   03/11/02                        :LOG DATE
UWI .                       	         :UNIQUE WELL ID
LIC .                                   :LICENSE NUMBER
~Curve Information Block
#MNEM.UNIT      API CODE     Curve Description
#---------    -------------  ------------------------
DEPT     .FT        00 001 00 00          :  1  DEPTH
GAM(NAT) .API-GR    00 310 00 00          :  2             GAM(NAT)
SP       .MV        00 010 00 00          :  3                   SP
RES(16N) .OHM-M     00 040 00 00          :  4             RES(16N)
RES(64N) .OHM-M     00 060 00 00          :  5             RES(64N)
RES      .OHM       00 000 00 00          :  6                  RES
LATERAL  .OHM-M     00 070 00 00          :  7              LATERAL
~Parameter Information Block
#MNEM.UNIT   Information     Description
#---------- ---------------  ------------------------
FILE.      ORIGINAL           :File Type
FIID.      8044A              :File Type Identifier
VERS.      1.0                :System Version
SER .      1                  :System Serial Number
TRUK.      0.0                :Truck Calibration Number
TOOL.         904             :Tool Serial Number
TIME.      1205               :Time    HrHrMinMin
LAT .          None           :Latitude
LON .          None           :Longitude
LMF .       Grnd. L           :Log Measured From
DMF .       Grnd. L           :Driller Measured From
PD  .          None           :Permanent Data
PDEV.          None           :Elevation Permanent Data
EKB .M         None           :Elevation Kelly Bushing
ELEV.DF        None           :Elevation DF
EGL .M         None           :Elevation Ground Level
DRDP.          1600           :Driller's Depth
CASD.        12               :Casing Diameter
CASB.            40           :Casing Bottom
CASX.         Steel           :Casing Type
CAST.         0               :Casing Thickness
TNOC.          None           :Time Circulation Stopped
LOGU.       None              :Logging Unit
RECB.        A. McThena       :Recorded By
OSR1.          None           :Other Services
OSR2.          None           :Other Services
OSR3.          None           :Other Services
BS  .MM          11           :Bit Size
MST .                         :Mean Surface Temperature
TGRD.        0                :Temperature Gradiant
MAGN.             0           :Magnetic Declination
MDEN.      2.71               :Density Matrix
MATR.       Dolomite          :Neutron Matrix
DTMT.            54           :Delta T Matrix
DTFL.                         :Delta T Fluid
MUDS.               0         :Mud Sample Source
MRS .           0             :Mud Resistivity
MTP .           0             :Mud Temperature
MFRS.                         :Resistivity Mud Filtrate
MFTP.                         :Temperature Mud Filtrate
MCRS.         0               :Resistivity Mud Cake
MCTP.                         :Temperature Mud Cake
FTYP.             0           :Fluid Type
FD  .K/M3                     :Fluid Density
DFV .S                        :Fluid Viscosity
FPH .                         :Fuild PH
ELCO.        2500             :Electron Cutoff
~Other Information
#MNEM.UNIT  Information      Description
#---------- ---------------  ------------------------
# --------------------------
#<------------------LOG DATA-------------------
#DEPT	GAM(NAT)	SP	RES(16N)	RES(64N)	RES	LATERAL
#FT	API-GR	MV	OHM-M	OHM-M	OHM	OHM-M
~A DEPTH  GAM(NAT) SP    RES(16N) RES(64N) RES      LATERAL  
1.200	-999.25	-999.25	-999.25	-999.25	-999.25	25005.4
1.300	-999.25	32.6	-999.25	-999.25	-999.25	25005.4
1.400	-999.25	32.9	-999.25	-999.25	-999.25	25005.4
1.500	-999.25	33.0	-999.25	-999.25	-999.25	25005.4
1.600	-999.25	33.2	-999.25	-999.25	-999.25	25005.4
1.700	-999.25	33.3	-999.25	-999.25	-999.25	25005.4
1.800	-999.25	33.2	-999.25	-999.25	-999.25	25005.4
1.900	-999.25	33.1	-999.25	-999.25	-999.25	25005.4
2.000	-999.25	32.8	-999.25	-999.25	-999.25	25005.4
2.100	-999.25	32.7	-999.25	-999.25	-999.25	25005.4
2.200	-999.25	32.5	-999.25	-999.25	-999.25	25005.4
2.300	-999.25	32.6	-999.25	-999.25	-999.25	25005.4
2.400	-999.25	33.2	-999.25	-999.25	-999.25	25005.4
2.500	-999.25	35.3	-999.25	-999.25	-999.25	25005.4
2.600	-999.25	36.6	-999.25	-999.25	-999.25	25005.4
2.700	-999.25	37.7	-999.25	-999.25	-999.25	25005.4
2.800	-999.25	38.8	-999.25	-999.25	-999.25	25005.4
2.900	-999.25	39.6	-999.25	-999.25	-999.25	25005.4
3.000	-999.25	40.4	-999.25	-999.25	-999.25	25005.4
3.100	-999.25	41.0	-999.25	-999.25	-999.25	25005.4
3.200	-999.25	41.5	-999.25	-999.25	-999.25	25005.4
3.300	-999.25	42.0	-999.25	-999.25	-999.25	25005.4
3.400	-999.25	42.2	-999.25	-999.25	-999.25	25005.4
3.500	-999.25	42.3	-999.25	-999.25	-999.25	25005.4
3.600	-999.25	42.5	-999.25	-999.25	-999.25	25005.4
3.700	-999.25	42.8	-999.25	-999.25	-999.25	25005.4
3.800	-999.25	43.3	-999.25	-999.25	-999.25	25005.4
3.900	-999.25	44.0	-999.25	572.0	-999.25	25005.4
4.000	-999.25	44.7	-999.25	506.5	-999.25	25027.3
4.100	-999.25	45.1	-999.25	375.0	-999.25	25071.1
4.200	-999.25	45.7	-999.25	358.3	-999.25	25076.7
4.300	-999.25	46.7	-999.25	350.4	-999.25	25079.3
4.400	-999.25	47.9	-999.25	336.5	-999.25	25083.9
4.500	-999.25	49.1	-999.25	335.4	-999.25	25084.3
4.600	-999.25	50.1	-999.25	335.4	-999.25	25084.3
4.700	-999.25	50.7	-999.25	335.4	-999.25	25084.3
4.800	-999.25	51.4	-999.25	335.2	-999.25	25084.4
4.900	-999.25	52.3	-999.25	335.1	-999.25	25084.4
5.000	-999.25	53.3	-999.25	335.3	-999.25	25084.3
5.100	-999.25	54.3	-999.25	335.0	-999.25	25084.4
5.200	-999.25	54.9	-999.25	335.1	-999.25	25084.4
5.300	-999.25	55.5	-999.25	335.2	-999.25	25084.4
5.400	-999.25	56.1	-999.25	335.1	-999.25	25084.4
5.500	-999.25	56.3	-999.25	335.5	-999.25	25084.3
5.600	-999.25	56.6	-999.25	335.4	-999.25	25084.3
5.700	-999.25	57.1	-999.25	335.6	-999.25	25084.2
5.800	-999.25	57.8	-999.25	335.5	-999.25	25084.3
5.900	-999.25	59.2	147.1	335.6	-999.25	25084.2
6.000	-999.25	60.0	130.1	335.4	-999.25	25061.6
6.100	-999.25	60.7	96.6	335.4	-999.25	25017.0
6.200	-999.25	61.4	92.3	335.0	-999.25	25011.4
6.300	19.7	61.9	90.5	335.2	-999.25	25009.0
6.400	20.5	62.8	86.9	334.9	-999.25	25004.3
6.500	18.2	63.7	86.6	335.2	-999.25	25003.7
6.600	17.1	64.3	86.6	334.8	43.7	25003.9
6.700	18.1	64.5	86.6	335.2	40.3	25003.7
6.800	18.2	64.5	86.6	335.3	33.8	25003.7
6.900	18.1	64.5	86.5	335.3	32.9	25003.6
7.000	18.6	64.5	86.6	335.5	32.3	25003.6
7.100	19.2	64.4	86.6	335.5	31.7	25003.6
7.200	19.8	64.5	86.7	335.2	31.7	25003.8
7.300	20.4	64.4	86.7	335.2	31.7	25003.9
7.400	20.3	64.4	86.7	335.3	31.7	25003.8
7.500	19.9	64.4	86.8	334.9	31.6	25004.1
7.600	20.7	64.5	86.9	335.1	31.7	25004.1
7.700	19.8	64.4	87.0	335.0	31.8	25004.3
7.800	19.8	64.5	86.9	334.8	31.6	25004.2
7.900	20.3	64.4	87.0	335.0	31.8	25004.3
8.000	21.2	64.4	86.8	334.7	31.6	25004.2
8.100	22.9	64.4	86.9	334.6	31.6	25004.3
8.200	21.9	64.4	86.8	334.5	31.7	25004.2
8.300	22.4	64.4	86.8	334.8	31.7	25004.1
8.400	21.8	64.5	86.8	334.2	31.7	25004.3
8.500	22.0	64.5	86.9	334.8	31.8	25004.3
8.600	20.5	64.4	86.8	334.5	31.8	25004.2
8.700	19.4	64.5	87.0	335.1	31.9	25004.3
8.800	22.3	64.4	87.0	335.0	31.9	25004.3
8.900	22.0	64.4	87.0	334.2	31.9	25004.6
9.000	21.3	64.4	86.9	334.7	32.0	25004.3
9.100	19.7	64.5	87.0	334.6	31.9	25004.5
9.200	18.3	64.9	86.8	334.6	31.7	25004.2
9.300	17.6	65.8	87.0	334.6	31.6	25004.5
9.400	16.2	66.9	86.9	334.4	31.6	25004.4
9.500	17.1	67.7	86.8	334.3	31.7	25004.3
9.600	17.6	68.6	86.8	334.7	31.7	25004.2
9.700	19.4	69.2	86.6	334.4	31.7	25004.0
9.800	19.4	69.8	86.6	334.0	31.8	25004.1
9.900	17.1	70.2	86.7	334.3	31.7	25004.2
10.000	16.7	70.3	86.5	334.1	31.8	25004.0
10.100	16.7	70.1	86.6	333.9	31.9	25004.2
10.200	18.5	69.9	86.5	334.2	31.7	25004.0
10.300	18.5	69.8	86.6	334.4	31.8	25004.0
10.400	18.0	69.7	86.5	334.1	31.7	25004.0
10.500	18.5	69.7	86.5	334.5	31.8	25003.8
10.600	17.0	69.6	86.4	333.9	31.6	25003.9
10.700	17.4	69.5	86.5	334.0	31.7	25004.0
10.800	16.5	69.6	86.5	334.0	31.8	25004.0
10.900	18.3	69.7	86.2	334.2	31.7	25003.5
11.000	18.8	69.8	86.2	334.1	31.8	25003.6
11.100	17.9	69.9	86.3	334.2	32.0	25003.7
11.200	18.3	70.1	86.2	334.0	31.8	25003.6
11.300	16.5	70.3	86.2	334.0	31.4	25003.6
11.400	15.1	70.6	86.1	334.4	31.5	25003.3
11.500	16.0	71.0	86.2	334.1	31.6	25003.6
11.600	15.6	71.5	86.2	334.3	31.6	25003.5
11.700	18.0	72.2	86.1	334.0	31.7	25003.5
11.800	16.2	72.8	86.2	333.9	31.7	25003.6
11.900	18.0	73.1	86.1	334.5	31.7	25003.3
12.000	16.7	73.3	86.1	334.0	31.6	25003.5
12.100	17.1	73.8	86.0	334.3	31.7	25003.2
12.200	18.5	74.1	86.0	334.1	31.7	25003.3
12.300	17.6	74.3	86.2	333.8	31.7	25003.7
12.400	18.5	74.4	86.1	334.2	31.7	25003.4
12.500	19.0	74.4	86.3	334.5	31.6	25003.6
12.600	19.0	74.6	86.0	334.3	31.7	25003.2
12.700	19.4	74.9	86.2	334.5	31.7	25003.4
12.800	15.7	75.3	86.0	334.2	31.6	25003.3
12.900	16.7	75.8	86.0	334.3	31.8	25003.2
13.000	15.7	76.6	86.0	334.5	31.6	25003.2
13.100	15.3	77.2	86.2	334.3	31.7	25003.5
13.200	16.2	77.2	86.1	334.4	31.6	25003.3
13.300	16.2	76.9	86.1	334.4	31.6	25003.3
13.400	17.6	76.7	86.2	334.5	31.6	25003.4
13.500	18.5	76.2	86.2	334.2	31.6	25003.5
13.600	19.4	75.8	86.1	334.0	31.6	25003.5
13.700	19.9	75.6	86.0	333.7	31.6	25003.4
13.800	21.7	75.2	86.1	333.4	31.6	25003.7
13.900	22.2	75.1	86.2	333.7	31.6	25003.7
14.000	22.7	74.5	86.1	333.4	31.5	25003.7
14.100	21.7	74.2	86.3	333.6	31.6	25003.9
14.200	23.6	73.8	86.2	333.3	31.6	25003.8
14.300	22.7	73.5	86.0	333.4	31.5	25003.5
14.400	23.6	73.2	86.1	333.5	31.6	25003.6
14.500	24.1	73.1	86.3	333.0	31.4	25004.1
14.600	23.1	72.8	86.2	333.1	31.6	25003.9
14.700	24.5	72.5	86.2	333.4	31.6	25003.8
14.800	25.4	72.2	86.2	332.6	31.6	25004.1
14.900	24.1	71.8	86.2	332.4	31.5	25004.1
15.000	24.5	71.8	86.2	333.1	31.6	25003.9
15.100	24.5	71.6	86.2	333.1	31.6	25003.9
15.200	24.5	71.7	86.2	332.8	31.7	25004.0
15.300	24.1	71.9	86.0	332.8	31.6	25003.7
15.400	22.7	72.1	86.1	333.0	31.7	25003.8
15.500	22.7	72.4	86.1	333.0	31.6	25003.8
15.600	21.7	72.8	86.0	333.1	31.6	25003.6
15.700	21.7	73.1	86.0	332.6	31.7	25003.8
15.800	20.2	73.6	85.9	333.1	31.7	25003.5
15.900	19.3	74.1	85.9	332.8	31.6	25003.6
16.000	18.8	75.1	85.8	332.9	31.8	25003.4
16.100	19.7	76.3	85.8	333.2	31.7	25003.3
16.200	18.8	77.5	85.7	333.1	31.6	25003.2
16.300	19.3	78.8	85.8	333.1	31.6	25003.4
16.400	18.8	81.0	85.8	333.0	31.5	25003.4
16.500	20.2	83.7	85.8	333.0	31.7	25003.4
16.600	21.6	85.8	85.7	333.0	31.7	25003.3
16.700	21.1	87.9	85.7	333.4	31.6	25003.1
16.800	22.5	91.1	85.6	332.8	31.4	25003.2
16.900	21.3	93.8	85.6	332.9	31.5	25003.2
17.000	24.1	96.2	85.7	333.2	31.6	25003.2
17.100	25.0	98.2	85.7	332.8	31.7	25003.3
17.200	26.8	99.5	85.6	333.1	31.8	25003.1
17.300	26.4	100.7	85.7	333.0	31.8	25003.3
17.400	27.3	102.2	85.8	332.9	32.0	25003.4
17.500	27.8	103.6	85.6	333.2	31.9	25003.1
17.600	26.8	105.1	85.9	333.1	32.0	25003.5
17.700	25.0	106.0	85.7	333.1	32.0	25003.2
17.800	27.3	107.2	85.8	333.0	31.8	25003.4
17.900	26.8	108.6	85.8	333.2	31.7	25003.3
18.000	26.8	109.8	85.7	332.7	31.6	25003.4
18.100	23.6	110.8	85.9	332.6	31.8	25003.7
18.200	21.3	111.2	85.8	332.4	31.5	25003.6
18.300	19.4	111.4	85.8	332.0	31.7	25003.7
18.400	20.8	111.5	85.8	332.0	31.8	25003.7
18.500	20.4	111.4	85.8	332.3	31.9	25003.6
18.600	21.3	111.3	85.9	332.6	31.6	25003.7
18.700	23.1	111.1	86.0	332.3	31.7	25003.9
18.800	22.7	110.9	85.8	332.0	31.6	25003.7
18.900	21.3	110.6	85.9	332.2	31.5	25003.8
19.000	21.3	110.2	85.8	332.0	31.6	25003.7
19.100	24.1	109.6	85.9	331.8	31.6	25003.9
19.200	25.0	108.8	85.8	332.0	31.6	25003.7
19.300	28.2	108.2	85.8	332.1	31.4	25003.7
19.400	31.0	107.3	85.9	332.1	31.5	25003.8
19.500	30.5	105.9	85.8	331.8	31.4	25003.8
19.600	30.5	104.6	85.9	331.9	31.4	25003.9
