~Version Information
VERS.                2.0:  CWLS LOG ASCII STANDARD -VERSION 2.0
~WELL INFORMATION BLOCK
#MNEM.UNIT       DATA		            DESCRIPTION OF MNEMONIC
#---------    -------------            ------------------------
STRT.FT  1.200                          :START DEPTH
STOP.FT  1599.200                       :STOP DEPTH
STEP.FT  0.100                          :STEP    UP_HOLE
NULL.    -999.25                        :NULL VALUE
COMP.                             MDGS  :COMPANY
WELL.                           SMBC39  :WELL
FLD .                      Persimmon H  :FIELD
LOC .    None  None  None               :LOCATION
CNTY.                       St. Mary's  :COUNTY
STAT.                    Md.            :STATE
SRVC.           None                    :SERVICE COMPANY
DATE.   03/11/02                        :LOG DATE
UWI .                       	         :UNIQUE WELL ID
LIC .                                   :LICENSE NUMBER
~Curve Information Block
#MNEM.UNIT      API CODE     Curve Description
#---------    -------------  ------------------------
DEPT     .FT        00 001 00 00          :  1  DEPTH
GAM(NAT) .API-GR    00 310 00 00          :  2             GAM(NAT)
SP       .MV        00 010 00 00          :  3                   SP
RES(16N) .OHM-M     00 040 00 00          :  4             RES(16N)
RES(64N) .OHM-M     00 060 00 00          :  5             RES(64N)
RES      .OHM       00 000 00 00          :  6                  RES
LATERAL  .OHM-M     00 070 00 00          :  7              LATERAL
~Parameter Information Block
#MNEM.UNIT   Information     Description
#---------- ---------------  ------------------------
FILE.      ORIGINAL           :File Type
FIID.      8044A              :File Type Identifier
VERS.      1.0                :System Version
SER .      1                  :System Serial Number
TRUK.      0.0                :Truck Calibration Number
TOOL.         904             :Tool Serial Number
TIME.      1205               :Time    HrHrMinMin
LAT .          None           :Latitude
LON .          None           :Longitude
LMF .       Grnd. L           :Log Measured From
DMF .       Grnd. L           :Driller Measured From
PD  .          None           :Permanent Data
PDEV.          None           :Elevation Permanent Data
EKB .M         None           :Elevation Kelly Bushing
ELEV.DF        None           :Elevation DF
EGL .M         None           :Elevation Ground Level
DRDP.          1600           :Driller's Depth
CASD.        12               :Casing Diameter
CASB.            40           :Casing Bottom
CASX.         Steel           :Casing Type
CAST.         0               :Casing Thickness
TNOC.          None           :Time Circulation Stopped
LOGU.       None              :Logging Unit
RECB.        A. McThena       :Recorded By
OSR1.          None           :Other Services
OSR2.          None           :Other Services
OSR3.          None           :Other Services
BS  .MM          11           :Bit Size
MST .                         :Mean Surface Temperature
TGRD.        0                :Temperature Gradiant
MAGN.             0           :Magnetic Declination
MDEN.      2.71               :Density Matrix
MATR.       Dolomite          :Neutron Matrix
DTMT.            54           :Delta T Matrix
DTFL.                         :Delta T Fluid
MUDS.               0         :Mud Sample Source
MRS .           0             :Mud Resistivity
MTP .           0             :Mud Temperature
MFRS.                         :Resistivity Mud Filtrate
MFTP.                         :Temperature Mud Filtrate
MCRS.         0               :Resistivity Mud Cake
MCTP.                         :Temperature Mud Cake
FTYP.             0           :Fluid Type
FD  .K/M3                     :Fluid Density
DFV .S                        :Fluid Viscosity
FPH .                         :Fuild PH
ELCO.        2500             :Electron Cutoff
~Other Information
#MNEM.UNIT  Information      Description
#---------- ---------------  ------------------------
# --------------------------
#<------------------LOG DATA-------------------
#DEPT	GAM(NAT)	SP	RES(16N)	RES(64N)	RES	LATERAL
#FT	API-GR	MV	OHM-M	OHM-M	OHM	OHM-M
~A DEPTH  GAM(NAT) SP    RES(16N) RES(64N) RES      LATERAL  
# ...
528.200	38.4	79.6	62.8	86.0	34.0	25055.1
528.300	37.5	79.4	63.3	86.5	34.0	25055.6
528.400	38.9	79.5	63.5	86.9	34.0	25055.7
528.500	36.5	79.7	63.6	87.0	33.9	25055.8
528.600	37.0	79.7	63.8	87.4	34.0	25055.9
528.700	38.9	79.7	63.8	87.6	34.1	25055.9
528.800	37.9	79.6	64.0	87.7	34.0	25056.1
528.900	37.9	79.6	63.8	87.9	34.1	25055.8
529.000	37.5	79.5	64.1	88.2	34.1	25056.1
529.100	37.9	79.6	64.0	88.4	34.2	25055.9
529.200	40.2	79.7	64.1	88.5	34.0	25056.0
529.300	37.5	79.7	64.2	88.6	34.2	25056.1
529.400	40.2	79.5	64.4	89.0	34.2	25056.2
529.500	39.3	79.6	64.4	89.0	34.3	25056.2
529.600	40.7	79.7	64.7	89.2	34.4	25056.5
529.700	39.8	79.8	64.7	89.4	34.4	25056.5
529.800	40.7	79.9	64.9	89.1	34.5	25056.8
529.900	40.7	79.9	65.2	89.2	34.5	25057.2
530.000	41.6	79.9	65.1	89.0	34.6	25057.1
530.100	45.8	80.1	65.4	88.8	34.6	25057.6
530.200	47.2	80.2	65.7	88.9	34.5	25058.0
530.300	47.6	80.3	65.8	88.7	34.7	25058.2
530.400	49.5	80.3	66.2	88.8	34.6	25058.7
530.500	47.2	80.3	66.6	89.0	34.7	25059.1
530.600	44.9	80.4	66.7	88.7	34.8	25059.4
530.700	45.3	80.6	67.1	88.7	34.8	25059.9
530.800	47.6	80.8	67.2	88.6	34.9	25060.1
530.900	47.6	80.9	67.3	88.4	34.9	25060.3
531.000	46.3	80.9	67.4	88.5	35.1	25060.4
531.100	46.7	80.9	67.7	88.3	35.2	25060.8
531.200	43.5	80.9	67.9	88.4	35.4	25061.1
531.300	41.6	81.1	67.9	88.5	35.6	25061.0
531.400	38.9	81.1	67.9	88.8	35.9	25060.9
531.500	39.8	81.1	67.8	88.7	36.0	25060.8
531.600	39.8	80.9	67.7	88.8	36.2	25060.7
531.700	42.1	80.9	67.5	88.8	36.0	25060.4
531.800	46.7	80.9	67.3	89.0	36.2	25060.1
531.900	45.8	81.1	67.2	89.1	36.2	25059.9
532.000	43.9	81.2	67.2	89.2	36.5	25059.9
532.100	46.3	81.3	67.3	89.3	36.6	25060.0
532.200	44.9	81.3	67.2	89.6	36.6	25059.7
532.300	50.0	81.4	67.3	90.1	36.7	25059.7
532.400	50.4	81.6	67.2	90.3	36.5	25059.5
532.500	49.0	81.6	67.4	90.6	36.4	25059.7
532.600	47.6	81.5	67.4	90.7	36.2	25059.6
532.700	49.0	81.5	67.7	90.9	36.2	25060.0
532.800	51.3	81.5	67.9	91.3	36.3	25060.1
532.900	47.6	81.6	67.8	91.3	36.2	25060.0
533.000	48.6	81.7	67.9	91.5	36.2	25060.0
533.100	50.4	81.7	67.6	91.6	36.0	25059.6
533.200	51.8	81.7	67.5	91.9	36.0	25059.4
533.300	58.3	81.2	67.4	92.3	35.9	25059.1
533.400	55.5	81.7	67.2	92.7	35.9	25058.7
533.500	55.5	81.7	67.2	92.8	35.9	25058.7
533.600	58.7	81.8	66.9	93.2	35.8	25058.1
533.700	62.0	81.8	66.7	93.7	35.7	25057.7
533.800	61.1	81.8	66.5	94.7	35.5	25057.1
533.900	58.7	81.7	66.4	95.3	35.4	25056.8
534.000	54.6	81.7	66.2	95.6	35.2	25056.4
534.100	51.3	81.7	66.1	95.7	35.2	25056.2
534.200	49.5	81.8	66.1	95.9	35.1	25056.2
534.300	48.1	81.6	66.2	96.1	35.1	25056.2
534.400	45.3	81.5	66.1	96.7	34.9	25055.9
534.500	45.3	81.6	66.4	96.8	35.0	25056.3
534.600	43.5	81.6	66.2	97.4	34.8	25055.8
534.700	41.2	81.6	66.2	97.5	34.8	25055.8
534.800	40.7	81.5	66.4	97.5	34.8	25056.0
534.900	40.7	81.4	66.4	97.7	34.7	25056.0
535.000	42.1	81.4	66.5	97.8	34.7	25056.1
535.100	46.3	81.4	66.4	97.8	34.7	25055.9
535.200	45.3	81.3	66.6	97.6	34.8	25056.3
535.300	46.7	81.2	66.8	97.3	34.8	25056.6
535.400	45.8	81.1	67.0	97.4	34.8	25056.9
535.500	43.0	81.0	67.2	96.8	34.9	25057.3
535.600	42.6	80.9	67.3	96.8	35.0	25057.5
535.700	45.3	81.0	67.7	96.1	35.0	25058.2
535.800	45.3	80.9	68.2	95.8	35.0	25059.0
535.900	46.7	81.0	68.6	95.7	35.2	25059.6
536.000	46.3	81.0	69.0	95.6	35.2	25060.1
536.100	44.9	81.0	68.9	95.4	35.4	25060.1
536.200	42.1	80.9	69.3	95.2	35.6	25060.7
536.300	43.5	81.1	69.9	94.3	35.7	25061.8
536.400	43.0	81.2	70.4	93.7	35.9	25062.6
536.500	42.6	81.2	70.8	93.1	36.0	25063.4
536.600	42.6	81.2	70.8	92.8	36.0	25063.5
536.700	42.1	81.3	71.0	92.2	36.2	25063.9
536.800	39.3	81.4	71.1	91.5	36.6	25064.3
536.900	41.6	81.5	71.2	91.1	37.0	25064.6
537.000	37.9	81.7	71.4	90.3	37.4	25065.1
537.100	38.9	81.8	71.7	90.2	37.9	25065.5
537.200	39.3	82.0	71.9	89.8	38.2	25065.9
537.300	39.8	82.2	72.1	89.7	38.8	25066.2
537.400	38.9	82.4	72.4	89.5	39.4	25066.7
537.500	37.9	82.5	72.4	89.3	39.5	25066.8
537.600	40.2	82.4	72.9	89.2	39.8	25067.5
537.700	39.3	82.4	73.5	88.9	40.0	25068.4
537.800	38.4	82.4	74.1	88.9	40.1	25069.2
537.900	41.2	82.5	75.0	88.7	40.2	25070.4
538.000	38.9	82.6	75.7	88.7	40.3	25071.4
538.100	39.8	82.7	76.0	88.6	40.4	25071.8
538.200	38.9	82.5	76.4	88.6	40.4	25072.3
538.300	36.5	82.4	76.8	88.8	40.5	25072.8
538.400	36.5	82.5	76.9	88.8	40.5	25072.9
538.500	39.3	82.5	77.0	89.0	40.5	25073.0
538.600	37.9	82.5	76.8	88.8	40.5	25072.8
538.700	37.0	82.3	76.7	88.9	40.6	25072.6
538.800	37.5	82.2	76.3	88.9	40.4	25072.1
538.900	37.5	82.1	76.1	88.8	40.5	25071.9
539.000	33.8	82.0	75.9	89.1	40.5	25071.5
539.100	34.7	81.9	75.8	89.2	40.5	25071.3
539.200	36.5	81.8	75.9	89.4	40.6	25071.4
539.300	36.5	81.8	75.9	89.8	40.4	25071.3
539.400	35.2	81.7	75.9	90.0	40.5	25071.2
539.500	33.8	81.7	75.8	90.5	40.1	25070.9
539.600	33.8	81.8	75.8	90.8	39.9	25070.8
539.700	34.7	81.9	75.7	91.3	39.6	25070.5
539.800	34.2	81.9	75.6	91.9	39.4	25070.2
539.900	33.3	81.8	75.6	92.7	39.3	25069.9
540.000	30.5	81.7	75.3	94.2	39.3	25069.0
540.100	31.9	81.6	75.2	95.2	39.2	25068.5
540.200	31.0	81.8	75.1	95.2	39.1	25068.4
540.300	27.8	81.8	74.7	96.0	39.0	25067.6
540.400	28.7	81.8	74.4	96.7	38.8	25067.0
540.500	30.5	81.8	74.2	97.6	38.7	25066.4
540.600	33.3	81.8	73.9	98.1	38.7	25065.8
540.700	34.2	81.8	73.5	98.2	38.6	25065.3
540.800	36.5	81.8	73.1	98.6	38.4	25064.6
540.900	36.5	81.9	72.6	98.9	38.7	25063.8
541.000	34.7	81.8	72.3	99.4	38.8	25063.3
541.100	37.0	81.6	72.4	99.8	39.0	25063.3
541.200	40.2	81.3	72.3	100.1	39.0	25063.0
541.300	40.2	81.3	72.0	100.7	38.9	25062.4
541.400	40.2	81.4	71.7	100.9	38.5	25062.0
541.500	40.7	81.4	71.4	101.0	38.4	25061.5
541.600	39.3	81.3	71.4	101.2	38.2	25061.5
541.700	37.0	81.4	71.2	100.9	38.0	25061.3
541.800	33.8	81.4	71.2	101.1	38.0	25061.2
541.900	33.3	81.5	71.2	101.4	37.9	25061.1
542.000	30.5	81.6	71.3	101.2	38.0	25061.3
542.100	32.8	81.6	71.2	101.4	37.8	25061.1
542.200	32.4	81.7	71.3	101.3	37.7	25061.3
542.300	31.5	81.6	71.3	101.1	37.4	25061.4
542.400	32.4	81.6	71.2	101.1	37.4	25061.2
542.500	33.8	81.6	71.2	101.0	37.2	25061.3
542.600	31.9	81.7	71.0	100.8	37.0	25061.1
542.700	34.7	81.6	70.8	100.7	37.0	25060.8
542.800	35.2	81.4	70.8	100.4	37.0	25060.9
542.900	34.7	81.3	70.7	100.4	37.0	25060.8
543.000	32.8	81.2	70.7	99.9	37.1	25061.0
543.100	33.8	81.1	70.8	100.0	37.2	25061.1
543.200	35.2	81.1	70.8	99.6	37.1	25061.2
543.300	35.6	80.8	70.9	99.0	37.2	25061.5
543.400	36.1	80.7	70.9	98.7	37.0	25061.6
543.500	39.3	80.8	70.9	98.2	37.0	25061.8
543.600	40.7	80.8	70.8	98.0	36.8	25061.7
543.700	40.2	80.7	70.7	97.7	36.8	25061.7
543.800	39.8	80.7	70.8	97.0	36.6	25062.1
543.900	40.2	80.6	70.7	96.8	36.7	25062.0
544.000	43.9	80.6	70.8	96.5	36.7	25062.2
544.100	46.3	80.7	70.7	96.4	36.8	25062.1
544.200	49.5	80.8	70.6	96.1	36.8	25062.1
544.300	48.6	80.9	70.6	96.0	36.8	25062.1
544.400	53.7	80.8	70.5	95.9	36.8	25062.0
544.500	52.3	80.7	70.4	95.8	36.8	25061.9
544.600	49.0	80.8	70.5	95.7	36.7	25062.1
544.700	46.7	80.8	70.5	95.6	36.6	25062.1
544.800	49.5	80.8	70.7	95.6	36.6	25062.4
544.900	46.7	80.9	70.7	95.7	36.6	25062.4
545.000	50.0	80.8	70.7	95.6	36.4	25062.4
545.100	49.0	80.8	70.8	95.6	36.7	25062.5
545.200	47.6	80.9	70.6	95.6	36.6	25062.3
545.300	44.9	80.9	70.2	95.7	36.8	25061.7
545.400	44.4	80.9	69.9	95.6	37.0	25061.3
545.500	37.9	81.0	69.4	95.7	37.3	25060.6
545.600	37.0	80.9	68.8	95.8	37.7	25059.8
545.700	37.5	80.9	68.9	95.6	38.2	25060.0
545.800	38.4	81.0	68.5	95.8	38.6	25059.4
545.900	36.5	81.1	68.1	95.8	38.9	25058.9
546.000	37.5	81.1	67.8	95.9	39.1	25058.4
546.100	33.3	81.0	67.6	95.8	39.2	25058.2
546.200	31.0	80.9	67.7	95.9	39.1	25058.3
546.300	30.1	80.9	67.8	95.9	39.2	25058.4
546.400	30.5	80.8	67.9	95.9	39.1	25058.6
546.500	31.5	80.8	68.1	95.9	38.4	25058.8
546.600	33.3	80.6	68.2	96.0	38.0	25058.9
546.700	32.4	80.5	68.4	95.8	37.6	25059.3
546.800	31.9	80.5	68.3	95.9	37.2	25059.1
546.900	29.6	80.6	68.4	95.9	37.2	25059.2
547.000	30.5	80.8	68.3	95.9	37.0	25059.1
547.100	34.2	80.9	68.2	95.6	36.9	25059.1
547.200	34.2	80.9	68.0	95.0	37.0	25059.0
547.300	35.6	81.1	67.9	94.0	37.1	25059.2
547.400	37.9	81.1	67.6	93.1	37.0	25059.1
547.500	36.1	81.2	67.2	92.4	37.2	25058.8
547.600	37.9	81.2	67.2	91.4	37.2	25059.1
