~Version Information
VERS.                2.0:  CWLS LOG ASCII STANDARD -VERSION 2.0
~WELL INFORMATION BLOCK
#MNEM.UNIT       DATA		            DESCRIPTION OF MNEMONIC
#---------    -------------            ------------------------
STRT.FT  1.200                          :START DEPTH
STOP.FT  1599.200                       :STOP DEPTH
STEP.FT  0.100                          :STEP    UP_HOLE
NULL.    -999.25                        :NULL VALUE
COMP.                             MDGS  :COMPANY
WELL.                           SMBC39  :WELL
FLD .                      Persimmon H  :FIELD
LOC .    None  None  None               :LOCATION
CNTY.                       St. Mary's  :COUNTY
STAT.                    Md.            :STATE
SRVC.           None                    :SERVICE COMPANY
DATE.   03/11/02                        :LOG DATE
UWI .                       	         :UNIQUE WELL ID
LIC .                                   :LICENSE NUMBER
~Curve Information Block
#MNEM.UNIT      API CODE     Curve Description
#---------    -------------  ------------------------
DEPT     .FT        00 001 00 00          :  1  DEPTH
GAM(NAT) .API-GR    00 310 00 00          :  2             GAM(NAT)
SP       .MV        00 010 00 00          :  3                   SP
RES(16N) .OHM-M     00 040 00 00          :  4             RES(16N)
RES(64N) .OHM-M     00 060 00 00          :  5             RES(64N)
RES      .OHM       00 000 00 00          :  6                  RES
LATERAL  .OHM-M     00 070 00 00          :  7              LATERAL
~Parameter Information Block
#MNEM.UNIT   Information     Description
#---------- ---------------  ------------------------
FILE.      ORIGINAL           :File Type
FIID.      8044A              :File Type Identifier
VERS.      1.0                :System Version
SER .      1                  :System Serial Number
TRUK.      0.0                :Truck Calibration Number
TOOL.         904             :Tool Serial Number
TIME.      1205               :Time    HrHrMinMin
LAT .          None           :Latitude
LON .          None           :Longitude
LMF .       Grnd. L           :Log Measured From
DMF .       Grnd. L           :Driller Measured From
PD  .          None           :Permanent Data
PDEV.          None           :Elevation Permanent Data
EKB .M         None           :Elevation Kelly Bushing
ELEV.DF        None           :Elevation DF
EGL .M         None           :Elevation Ground Level
DRDP.          1600           :Driller's Depth
CASD.        12               :Casing Diameter
CASB.            40           :Casing Bottom
CASX.         Steel           :Casing Type
CAST.         0               :Casing Thickness
TNOC.          None           :Time Circulation Stopped
LOGU.       None              :Logging Unit
RECB.        A. McThena       :Recorded By
OSR1.          None           :Other Services
OSR2.          None           :Other Services
OSR3.          None           :Other Services
BS  .MM          11           :Bit Size
MST .                         :Mean Surface Temperature
TGRD.        0                :Temperature Gradiant
MAGN.             0           :Magnetic Declination
MDEN.      2.71               :Density Matrix
MATR.       Dolomite          :Neutron Matrix
DTMT.            54           :Delta T Matrix
DTFL.                         :Delta T Fluid
MUDS.               0         :Mud Sample Source
MRS .           0             :Mud Resistivity
MTP .           0             :Mud Temperature
MFRS.                         :Resistivity Mud Filtrate
MFTP.                         :Temperature Mud Filtrate
MCRS.         0               :Resistivity Mud Cake
MCTP.                         :Temperature Mud Cake
FTYP.             0           :Fluid Type
FD  .K/M3                     :Fluid Density
DFV .S                        :Fluid Viscosity
FPH .                         :Fuild PH
ELCO.        2500             :Electron Cutoff
~Other Information
#MNEM.UNIT  Information      Description
#---------- ---------------  ------------------------
# --------------------------
#<------------------LOG DATA-------------------
#DEPT	GAM(NAT)	SP	RES(16N)	RES(64N)	RES	LATERAL
#FT	API-GR	MV	OHM-M	OHM-M	OHM	OHM-M
~A DEPTH  GAM(NAT) SP    RES(16N) RES(64N) RES      LATERAL  
# ...
1268.200	61.5	-34.6	13.5	13.3	21.3	25013.6
1268.300	59.7	-34.7	13.2	13.4	21.1	25013.1
1268.400	66.6	-34.8	13.3	13.4	21.0	25013.3
1268.500	67.1	-34.9	13.2	13.4	21.0	25013.1
1268.600	67.5	-34.9	13.1	13.6	20.9	25012.9
1268.700	68.5	-35.1	13.2	13.3	21.0	25013.2
1268.800	70.3	-35.3	13.1	13.3	20.9	25013.0
1268.900	73.5	-35.3	13.2	13.4	20.9	25013.1
1269.000	76.3	-35.3	13.0	13.3	20.8	25012.9
1269.100	76.8	-35.5	13.1	13.4	20.8	25013.0
1269.200	80.5	-35.7	13.0	13.4	20.8	25012.9
1269.300	80.0	-35.7	12.9	13.3	20.9	25012.8
1269.400	85.1	-35.8	12.8	13.4	21.0	25012.6
1269.500	79.6	-35.7	12.8	13.3	21.1	25012.6
1269.600	78.2	-35.8	12.6	13.3	21.1	25012.4
1269.700	82.3	-35.3	12.6	13.4	21.2	25012.3
1269.800	85.1	-35.8	12.5	13.3	21.0	25012.2
1269.900	87.4	-35.8	12.4	13.4	21.2	25012.1
1270.000	87.0	-36.0	12.5	13.4	21.2	25012.2
1270.100	90.2	-35.9	12.2	13.3	21.3	25011.8
1270.200	89.7	-35.8	12.2	13.4	21.4	25011.8
1270.300	87.4	-35.7	12.1	13.4	21.3	25011.7
1270.400	86.5	-35.4	12.0	13.4	21.2	25011.5
1270.500	81.4	-35.5	12.2	13.4	20.9	25011.8
1270.600	81.4	-35.4	12.0	13.4	20.8	25011.5
1270.700	83.3	-35.7	11.9	13.4	20.4	25011.4
1270.800	78.6	-35.3	12.0	13.5	20.3	25011.5
1270.900	69.8	-35.1	11.9	13.4	20.2	25011.4
1271.000	69.4	-34.8	11.9	13.5	20.0	25011.4
1271.100	67.1	-34.3	11.9	13.4	19.9	25011.4
1271.200	61.5	-34.4	12.0	13.4	19.8	25011.5
1271.300	62.4	-34.2	11.8	13.4	19.6	25011.3
1271.400	62.4	-34.1	11.9	13.4	19.6	25011.4
1271.500	64.3	-34.0	11.7	13.4	19.4	25011.1
1271.600	63.8	-34.0	11.7	13.4	19.4	25011.1
1271.700	64.8	-33.8	11.6	13.1	19.3	25011.1
1271.800	62.0	-33.9	11.5	13.2	19.2	25010.9
1271.900	57.4	-33.7	11.4	13.5	18.9	25010.7
1272.000	65.7	-33.8	11.5	13.4	18.9	25010.9
1272.100	63.8	-33.7	11.3	13.5	18.9	25010.6
1272.200	64.8	-33.5	11.3	13.6	18.8	25010.5
1272.300	66.6	-33.5	11.2	13.5	18.8	25010.4
1272.400	67.1	-33.3	11.1	13.6	18.8	25010.3
1272.500	66.6	-33.1	11.1	13.4	18.6	25010.3
1272.600	60.1	-33.2	11.1	13.5	18.8	25010.3
1272.700	58.7	-33.0	11.0	13.6	18.8	25010.1
1272.800	57.8	-33.0	10.9	13.5	18.7	25010.0
1272.900	57.8	-32.8	10.9	13.4	18.8	25010.1
1273.000	60.1	-33.0	10.9	13.4	18.8	25010.1
1273.100	62.0	-32.8	10.8	13.2	18.8	25010.0
1273.200	61.5	-32.8	10.7	13.3	18.7	25009.8
1273.300	59.2	-32.8	10.7	13.5	18.7	25009.8
1273.400	60.6	-32.7	10.6	13.3	18.8	25009.7
1273.500	56.4	-32.5	10.6	13.4	18.7	25009.7
1273.600	54.1	-32.4	10.7	13.4	18.6	25009.8
1273.700	55.5	-32.3	10.7	13.3	18.6	25009.8
1273.800	56.0	-32.3	10.7	13.4	18.5	25009.8
1273.900	58.3	-32.3	10.7	13.3	18.5	25009.8
1274.000	59.2	-32.2	10.6	13.4	18.5	25009.7
1274.100	61.5	-32.5	10.7	13.3	18.4	25009.8
1274.200	54.6	-32.5	10.7	13.3	18.5	25009.8
1274.300	56.4	-32.5	10.7	13.3	18.5	25009.8
1274.400	57.8	-32.3	10.7	13.4	18.6	25009.8
1274.500	55.0	-32.5	10.7	13.1	18.6	25009.9
1274.600	56.9	-32.5	10.7	13.2	18.6	25009.9
1274.700	59.7	-32.5	10.6	13.2	18.7	25009.7
1274.800	62.0	-32.1	10.7	12.9	18.7	25010.0
1274.900	58.7	-32.4	10.7	12.9	18.8	25010.0
1275.000	55.0	-32.0	10.7	12.9	18.9	25010.0
1275.100	55.0	-32.0	10.6	12.9	18.8	25009.8
1275.200	51.3	-32.0	10.7	12.9	18.9	25010.0
1275.300	52.7	-32.0	10.7	12.8	18.7	25010.0
1275.400	49.0	-32.0	10.7	12.7	18.8	25010.0
1275.500	49.0	-32.1	10.7	12.5	18.9	25010.1
1275.600	50.9	-32.2	10.7	12.4	18.8	25010.1
1275.700	48.6	-32.0	10.6	12.6	18.9	25009.9
1275.800	46.3	-32.1	10.7	12.6	18.8	25010.1
1275.900	43.9	-32.2	10.7	12.5	18.9	25010.1
1276.000	46.3	-32.3	10.6	12.5	18.8	25010.0
1276.100	43.5	-32.2	10.7	12.1	18.9	25010.2
1276.200	44.4	-32.3	10.7	12.2	18.9	25010.2
1276.300	44.4	-32.3	10.6	12.4	18.7	25010.0
1276.400	45.3	-32.4	10.8	12.2	18.7	25010.3
1276.500	48.1	-32.5	10.7	12.5	18.6	25010.1
1276.600	48.6	-32.7	10.7	12.3	18.5	25010.2
1276.700	50.0	-32.8	10.6	12.1	18.4	25010.1
1276.800	50.0	-32.8	10.7	12.2	18.3	25010.2
1276.900	50.9	-32.9	10.7	12.2	18.3	25010.2
1277.000	50.9	-32.8	10.7	12.0	18.5	25010.3
1277.100	52.7	-32.5	10.7	12.0	18.6	25010.3
1277.200	54.6	-32.5	10.7	11.8	18.6	25010.3
1277.300	54.1	-32.3	10.6	11.8	18.8	25010.2
1277.400	55.0	-32.3	10.7	11.8	19.0	25010.3
1277.500	54.6	-32.2	10.7	11.4	19.2	25010.5
1277.600	51.8	-32.2	10.7	11.7	19.3	25010.4
1277.700	52.3	-32.3	10.7	11.7	19.4	25010.4
1277.800	50.4	-32.0	10.6	11.6	19.5	25010.3
1277.900	53.2	-32.0	10.7	11.4	19.5	25010.5
1278.000	51.3	-32.0	10.7	11.4	19.4	25010.5
1278.100	52.3	-32.0	10.7	11.4	19.6	25010.5
1278.200	52.3	-32.0	10.7	11.4	19.6	25010.5
1278.300	52.7	-31.9	10.6	11.4	19.8	25010.3
1278.400	50.9	-31.7	10.7	11.3	19.9	25010.5
1278.500	48.6	-30.9	10.7	11.5	20.0	25010.4
1278.600	48.6	-30.8	10.7	11.4	19.6	25010.5
1278.700	47.2	-30.8	10.7	11.4	19.4	25010.5
1278.800	47.2	-30.7	10.7	11.2	19.4	25010.5
1278.900	46.3	-30.4	10.7	11.2	19.5	25010.5
1279.000	48.6	-30.0	10.6	11.2	19.8	25010.4
1279.100	49.5	-29.5	10.7	11.4	19.9	25010.5
1279.200	49.0	-29.7	10.7	11.3	19.9	25010.5
1279.300	48.6	-29.4	10.6	11.3	20.2	25010.4
1279.400	50.0	-28.8	10.6	11.3	20.1	25010.4
1279.500	50.4	-29.0	10.5	11.1	20.1	25010.3
1279.600	52.7	-28.9	10.5	11.2	20.0	25010.3
1279.700	51.3	-28.8	10.4	11.3	19.9	25010.1
1279.800	53.2	-28.9	10.3	11.4	19.9	25009.9
1279.900	52.3	-28.8	10.3	11.3	19.8	25010.0
1280.000	50.9	-28.6	10.3	11.3	19.6	25010.0
1280.100	48.6	-28.4	10.2	11.4	19.6	25009.8
1280.200	48.1	-28.1	10.2	11.3	19.4	25009.8
1280.300	48.1	-27.9	10.2	11.2	19.1	25009.9
1280.400	47.6	-27.8	10.0	11.3	19.0	25009.6
1280.500	47.2	-28.0	10.1	11.2	18.9	25009.7
1280.600	46.7	-27.8	9.8	11.2	18.8	25009.3
1280.700	47.6	-27.7	10.0	11.2	18.8	25009.6
1280.800	47.6	-27.5	9.8	11.0	18.7	25009.4
1280.900	49.0	-27.3	9.7	11.1	18.6	25009.2
1281.000	50.9	-27.1	9.6	11.2	18.4	25009.1
1281.100	49.5	-27.0	9.6	11.2	18.3	25009.1
1281.200	49.0	-27.0	9.5	11.4	18.1	25008.9
1281.300	50.4	-26.9	9.5	11.3	18.1	25008.9
1281.400	50.4	-26.7	9.5	11.1	18.2	25009.0
1281.500	51.3	-26.5	9.5	11.2	18.1	25008.9
1281.600	52.7	-26.4	9.5	11.2	18.1	25008.9
1281.700	50.9	-26.3	9.5	11.2	17.8	25008.9
1281.800	50.0	-26.5	9.4	11.2	17.6	25008.8
1281.900	50.4	-26.5	9.5	11.2	17.3	25008.9
1282.000	52.3	-26.4	9.4	11.3	17.2	25008.8
1282.100	50.4	-26.2	9.4	11.2	17.1	25008.8
1282.200	53.2	-26.2	9.4	11.1	17.1	25008.8
1282.300	51.8	-26.1	9.4	11.3	17.1	25008.8
1282.400	50.9	-26.2	9.3	11.2	17.0	25008.7
1282.500	47.6	-26.1	9.2	11.0	17.1	25008.6
1282.600	48.1	-26.1	9.1	11.4	17.1	25008.3
1282.700	46.7	-26.1	9.1	11.3	17.0	25008.4
1282.800	51.8	-26.1	9.0	11.1	17.2	25008.3
1282.900	53.2	-26.0	9.0	11.1	17.2	25008.3
1283.000	54.6	-26.0	9.0	11.1	17.6	25008.3
1283.100	50.0	-26.0	8.9	11.3	17.8	25008.1
1283.200	50.9	-25.8	9.0	11.0	17.8	25008.3
1283.300	50.9	-25.6	8.9	11.1	17.6	25008.2
1283.400	56.0	-25.7	8.9	11.3	17.5	25008.1
1283.500	56.0	-25.6	8.9	10.9	17.4	25008.2
1283.600	62.4	-25.4	8.8	10.9	17.5	25008.1
1283.700	62.4	-24.9	8.9	11.0	17.6	25008.2
1283.800	61.1	-24.5	8.8	10.8	17.5	25008.1
1283.900	60.1	-25.0	8.9	10.9	17.5	25008.2
1284.000	61.1	-24.8	8.8	10.8	17.7	25008.1
1284.100	61.1	-24.4	8.9	10.7	18.0	25008.3
1284.200	67.1	-24.1	8.8	11.1	18.1	25008.0
1284.300	66.1	-24.2	8.9	10.9	17.7	25008.2
1284.400	64.8	-24.5	9.0	10.6	17.3	25008.5
1284.500	61.1	-24.9	8.9	10.9	17.0	25008.2
1284.600	62.4	-24.8	9.0	11.0	16.8	25008.3
1284.700	61.1	-24.8	9.0	10.7	16.7	25008.4
1284.800	57.8	-25.0	9.1	10.8	16.4	25008.5
1284.900	61.5	-24.9	9.1	10.8	16.5	25008.5
1285.000	60.6	-24.9	9.2	10.6	16.7	25008.7
1285.100	62.0	-24.7	9.2	10.8	16.8	25008.7
1285.200	60.6	-24.8	9.2	10.6	16.9	25008.7
1285.300	56.0	-24.8	9.2	10.8	17.0	25008.7
1285.400	61.1	-24.8	9.2	10.7	17.3	25008.7
1285.500	64.3	-24.8	9.1	10.6	17.4	25008.6
1285.600	65.7	-24.5	9.0	10.7	17.5	25008.4
1285.700	66.1	-24.4	9.1	10.7	17.7	25008.6
1285.800	66.1	-24.3	9.1	10.7	18.0	25008.6
1285.900	71.2	-24.0	9.0	10.8	18.0	25008.4
1286.000	68.9	-24.1	9.1	10.4	18.1	25008.7
1286.100	69.8	-24.0	9.0	10.5	18.1	25008.5
1286.200	68.9	-24.1	9.2	10.8	18.2	25008.7
1286.300	71.7	-24.1	9.1	10.6	18.3	25008.6
1286.400	74.9	-24.1	9.1	10.4	18.4	25008.7
1286.500	72.6	-24.2	9.2	10.5	18.6	25008.8
1286.600	68.9	-24.2	9.2	10.4	18.5	25008.8
1286.700	68.5	-24.0	9.2	10.6	18.6	25008.7
1286.800	70.3	-23.9	9.2	10.7	18.7	25008.7
1286.900	74.0	-23.7	9.1	10.4	18.7	25008.7
